field_1,Unnamed: 0,구명,단지명,주택유형,세대수,입주개시일,주소,우편번호,전화번호,위도,경도,H/B,행정동,행정동_경도,행정동_위도
"223","223",동작구,사당신동아(사당5),재개발,"333",1999-03-17,동작대로29길 118 (사당동 신동아아파트),"6998",,37.4910414805382,126.977148222194,H,사당2동,126.979253427857,37.4887524986383
"230","230",동작구,흑석한강센트레빌(흑석5),재개발,"655",2011-06-01,흑석한강로 12 (흑석동 흑석한강센트레빌),"6981",,37.5051798359323,126.964512513845,H,흑석동,126.966590753167,37.505775015361
"233","233",동작구,흑석한강푸르지오(흑석4),재개발,"863",2012-07-23,흑석한강로 27 (흑석동 흑석한강푸르지오),"6981",,37.5040994188129,126.966284444741,H,흑석동,126.966590753167,37.505775015361
"308","308",서초구,래미안퍼스티지,재건축,"2444",2009-09-10,반포대로 275 (반포동 래미안퍼스티지아파트),"6547",,37.5023902684594,126.995965286053,H,반포2동,126.994503507652,37.5045938889694
"331","331",서초구,아크로리버파크반포,재건축,"1612",2016-09-01,신반포로15길 19 (반포동 아크로리버파크),"6503",,37.5062519997568,126.992673104135,H,반포2동,126.994503507652,37.5045938889694
"338","338",서초구,신반포자이(반포한양),행복(재건축),"607",2019-03-08,서초구 평창길 75(잠원동 66),"3002",,37.5101774500185,127.008059973567,H,반포3동,127.003546906127,37.5087854393324
