field_1,Unnamed: 0,구명,단지명,주택유형,세대수,입주개시일,주소,우편번호,전화번호,위도,경도,H/B,행정동,행정동_경도,행정동_위도
"278","278",서대문구,홍제유원(홍제1),재개발,"150",1994-08-01,세검정로 134 (홍제동 유원하나아파트),"3620",,37.5946849738052,126.951908917839,H,홍제3동,126.949743382569,37.5937821789907
"279","279",서대문구,홍은벽산(홍은5-3),재개발,"1509",1995-06-01,세검정로1길 95 (홍은동 홍은벽산아파트),"3612",,37.5958254221961,126.945620839841,H,홍은1동,126.947108251211,37.5989166778989
"281","281",서대문구,인왕산현대(홍제4),재개발,"246",1998-04-07,통일로34길 46 (홍제동 인왕산현대아파트),"3633",,37.5858570515133,126.949957261207,H,홍제2동,126.949395266731,37.5861524276881
"282","282",서대문구,홍제원현대(홍제3),재개발,"482",1998-04-28,통일로34길 43 (홍제동 홍제원현대아파트),"3631",,37.5883357243751,126.948794498635,H,홍제2동,126.949395266731,37.5861524276881
"291","291",서대문구,동원베네스트,재건축,"195",2012-02-07,홍은중앙로1길 65 (홍은동 동원베네스트아파트),"3613",,37.5984834346677,126.944456625497,H,홍은1동,126.947108251211,37.5989166778989
"297","297",서대문구,북한산더샵(홍은12),재개발,"552",2018-01-02,통일로510(홍은동 북한산 더샵),"3615",,37.594570187466,126.941167410528,H,홍은1동,126.947108251211,37.5989166778989
"301","301",서대문구,북한산 두산위브(홍은14구역),재개발행복(리츠2호),"457",2019-11-30,서대문구 홍은중앙로3길 9(홍은동19-19),"3610",,37.5990017774988,126.944654295681,H,홍은1동,126.947108251211,37.5989166778989
