구명,단지명,주택유형,세대수,주소,우편번호,경도,위도,H/B,행정동,행정동_경도,행정동_위도
강남구,대치1,영구임대,1623,개포로109길 9 (개포동 대치아파트),6335,127.0750962,37.49575209,H,일원2동,127.0736996,37.49217318
강남구,수서1-1단지,영구공공,2214,양재대로55길 10 (일원동 수서1단지 에스에이치빌),6341,127.0909914,37.49315404,H,일원1동,127.0880692,37.49187863
강남구,수서6,영구임대,1508,광평로56길 11 (수서동 수서6단지아파트),6368,127.1056307,37.48797881,H,수서동,127.105004,37.48888786
강서구,보람더하임,재건축,202,양천로 666 (염창동 보람 더하임),7554,126.8705098,37.55151575,H,염창동,126.8709853,37.55373624
강남구,신사삼지래미안,재건축,63,압구정로2길 20 (신사동 래미안 신사),6027,127.0196202,37.52010498,H,신사동,127.0227745,37.52398503
강남구,래미안그레이튼,재건축,476,도곡로43길 20 (역삼동 래미안 그레이튼),6219,127.0486171,37.49686518,H,역삼2동,127.0468347,37.49596751
강남구,래미안그레이튼2차,재건축,464,도곡로43길 21 (역삼동 래미안그레이튼),6219,127.0470116,37.49572777,H,역삼2동,127.0468347,37.49596751
강남구,세곡리엔파크1단지,국민장기,395,헌릉로590길 100 (세곡동 세곡리엔파크1단지),6366,127.1010245,37.46352927,H,세곡동,127.1067603,37.4644401
강남구,신동아 파밀리에(세곡리엔파크2단지),국민장기,410,헌릉로590길 10 (세곡동 세곡리엔파크2단지),6365,127.1026803,37.46450499,H,세곡동,127.1067603,37.4644401
강남구,세곡리엔파크3단지,국민장기,363,헌릉로590길 11 (세곡동 세곡리엔파크3단지),6365,127.104165,37.46438764,H,세곡동,127.1067603,37.4644401
강남구,세곡리엔파크4단지,국민장기,407,헌릉로590길 88 (세곡동 세곡리엔파크4단지),6366,127.1014443,37.46287766,H,세곡동,127.1067603,37.4644401
강남구,청담자이,재건축,708,영동대로138길 12 (청담동 청담자이아파트),6076,127.0572498,37.52410147,H,청담동,127.04931,37.5251158
강남구,강남데시앙파크(세곡리엔파크5단지),국민장기,546,헌릉로590길 63 (세곡동 강남데시앙파크),6366,127.1015409,37.46104654,H,세곡동,127.1067603,37.4644401
강남구,개나리에스케이뷰,재건축,240,역삼로 315-1 (역삼동 개나리SK뷰),6213,127.050071,37.50056843,H,역삼2동,127.0468347,37.49596751
강남구,도곡진달래(래미안도곡카운티),재건축,397,도곡로 320 (도곡동 래미안도곡카운티),6275,127.0520027,37.495639,H,도곡2동,127.0463838,37.4837284
강남구,역삼동 공공원룸텔,기타임대,30,도곡로23길 5 (역삼동),6257,127.0396461,37.49252442,H,역삼1동,127.0332011,37.49542432
강남구,테헤란아이파크,재건축,411,테헤란로52길 16 (역삼동 테헤란IPARK),6213,127.0463814,37.50249755,H,역삼2동,127.0468347,37.49596751
강남구,세곡2-3(래미안포레),영구국민장기,1070,밤고개로21길 25 (자곡동 래미안포레),6370,127.1076444,37.47504752,H,세곡동,127.1067603,37.4644401
강남구,세곡2-4(강남한양수자인),영구국민장기,1304,자곡로 260 (자곡동 강남한양수자인아파트),6370,127.1116057,37.47654872,H,세곡동,127.1067603,37.4644401
강남구,경복논현아크로힐스,재건축,368,언주로 604 (논현동 ACROHILLS논현),6102,127.0384212,37.50953032,H,논현2동,127.0373599,37.51739318
강남구,강남한신휴플러스6(세곡2-6),국민장기,378,밤고개로26길 50 (율현동 강남 한신휴플러스 6단지),6377,127.1048213,37.46781108,H,세곡동,127.1067603,37.4644401
강남구,강남한신휴플러스8(세곡2-8),국민장기,169,밤고개로27길 20 (율현동 강남 한신휴플러스 8단지),6378,127.1097663,37.47090192,H,세곡동,127.1067603,37.4644401
강남구,수서하니움,장기전세,73,광평로60길 32 (수서동 하니움),6369,127.1072035,37.48660093,H,수서동,127.105004,37.48888786
강남구,래미안대치팰리스,재건축,1608,삼성로51길 37 (대치동 래미안 대치 팰리스(1단지)),6280,127.0576977,37.49343619,H,대치1동,127.0568202,37.49326011
강남구,역삼자이,재건축,408,언주로 420 (역삼동 역삼자이아파트),6214,127.0441686,37.50096264,H,역삼2동,127.0468347,37.49596751
강남구,래미안개포루체하임(일원동현대),행복(재건축),850,개포로 110길 50(일원동 689-1),6344,127.0796242,37.48954101,H,일원2동,127.0736996,37.49217318
강남구,래미안블레스티지(개포주공2차),행복(재건축),1957,강남구 선릉로 8(개포동 140),6326,127.0641534,37.48005758,H,개포2동,127.0691336,37.48978647
강남구,디에이치아너힐즈(개포주공3),행복(재건축),1320,강남구 삼성로 11(개포동 138 외),6327,127.0679602,37.48444021,H,개포2동,127.0691336,37.48978647
강동구,천호삼성(천호4),재개발,247,성안로25길 15 (천호동 삼성아파트),5338,127.1348114,37.53786553,H,천호3동,127.1298461,37.53983473
강동구,천호동아코아(천호5),재개발,191,구천면로 189 (천호동 동아코아아파트),5327,127.1255364,37.54159201,H,천호2동,127.1254393,37.54344349
강동구,천호태영(천호6),재개발,264,천호대로 1055 (천호동 천호태영아파트),5336,127.1294245,37.53836972,H,천호3동,127.1298461,37.53983473
강동구,강일지구1단지(강일리버파크1단지),국민장기,282,아리수로93가길 25 (강일동 강일리버파크1단지아파트),5211,127.1720243,37.56686794,H,강일동,127.1739197,37.56494469
강동구,강일지구2단지(강일리버파크2단지),국민장기,442,아리수로97길 68 (강일동 강일리버파크2단지아파트),5208,127.1766546,37.56873076,H,강일동,127.1739197,37.56494469
강동구,강일지구3단지(강일리버파크3단지),국민장기,987,아리수로93길 40 (강일동 강일리버파크3단지아파트),5210,127.1751066,37.56551714,H,강일동,127.1739197,37.56494469
강동구,강일지구4단지(강일리버파크4단지),국민장기,748,아리수로97길 19 (강일동 강일리버파크4단지아파트),5210,127.1767913,37.56699524,H,강일동,127.1739197,37.56494469
강동구,강일지구6단지(강일리버파크6단지),국민장기,553,아리수로94길 19 (강일동 강일리버파크6단지아파트),5213,127.1772602,37.56273301,H,강일동,127.1739197,37.56494469
강동구,강일지구8단지(강일리버파크8단지),국민장기,410,아리수로94길 72 (강일동 강일리버파크8단지아파트),5212,127.1762696,37.5607223,H,강일동,127.1739197,37.56494469
강동구,강일지구9단지(강일리버파크9단지),국민장기,841,고덕로97길 29 (강일동 강일리버파크9단지아파트),5216,127.1778326,37.55835403,H,강일동,127.1739197,37.56494469
강동구,강일지구10단지(강일리버파크10단지),국민장기,694,고덕로97길 20 (강일동 강일리버파크),5215,127.1799976,37.55920849,H,강일동,127.1739197,37.56494469
강동구,강일지구7단지(강일리버파크7단지),국민장기,731,아리수로98길 25 (강일동 강일리버파크7단지아파트),5214,127.178359,37.56527657,H,강일동,127.1739197,37.56494469
강동구,강일지구5단지(강일리버파크5단지),국민장기,722,아리수로97길 20 (강일동 강일리버파크5단지아파트),5209,127.1781372,37.56851427,H,강일동,127.1739197,37.56494469
강동구,고덕아이파크,재건축,1142,동남로79길 26 (고덕동 고덕아이파크),5232,127.1537442,37.55918388,H,고덕1동,127.151502,37.55726306
강동구,고덕리엔파크1단지,국민장기,605,상일로 152 (강일동 고덕리엔파크1단지아파트),5218,127.1713462,37.56163549,H,강일동,127.1739197,37.56494469
강동구,고덕리엔파크2단지,국민장기,636,고덕로 427 (강일동 고덕리엔파크2단지아파트),5217,127.1731822,37.55879729,H,강일동,127.1739197,37.56494469
강동구,고덕리엔파크3단지,국민장기,2283,상일로 74 (상일동 고덕리엔파크3단지아파트),5287,127.1747855,37.55136837,H,상일2동,127.1776015,37.55201172
강동구,강일지구 11단지(행복주택),행복(공사 건설형),346,고덕로97길 100 (강일동 강일리버파크11단지),5214,127.1799929,37.562735,H,강일동,127.1739197,37.56494469
강동구,강일2 도시형생활주택(준주거2)(임대),기타임대,76,상일로12길 89 (강일동 리엔타운),5285,127.1728866,37.55637071,H,상일2동,127.1776015,37.55201172
강동구,올림픽파크한양수자인,재건축,482,성내로 80 (성내동 올림픽파크한양수자인),5401,127.1279653,37.52717962,H,성내1동,127.1224218,37.53047946
강동구,고덕래미안힐스테이트,재건축,3658,아리수로50길 50 (고덕동 래미안힐스테이트고덕),4731,127.1486002,37.55768914,H,고덕1동,127.151502,37.55726306
강동구,고덕숲아이파크,재건축,687,고덕로80길 134(상일동 고덕숲아이파크) ,5277,127.164857,37.55171846,H,상일1동,127.1646204,37.550643
강동구,래미안 명일역 솔베뉴(삼익그린),행복(재건축),1900,강동구 양재대로 1650(명일동 309-1),5226,127.1459181,37.55438988,H,명일1동,127.1460822,37.54980603
강동구,고덕 그라시움(고덕2),행복(재건축),4932,강동구 동남로82길 98(고덕동 220),5224,127.1593233,37.55618058,H,고덕2동,127.164366,37.56052548
강북구,래미안수유(수유2),재개발,180,한천로159길 8 (수유동 래미안수유아파트),1040,127.0186552,37.64445476,H,수유2동,127.0199332,37.64466097
강북구,SK북한산시티(미아1-1),재개발,1497,솔샘로 174 (미아동 SK북한산시티아파트),1192,127.0105997,37.61763836,H,삼각산동,127.020836,37.61505441
강북구,미아벽산(미아1-2),재개발,490,솔샘로 159 (미아동 벽산라이브파크),1191,127.0124075,37.62182327,H,삼양동,127.018388,37.62734428
강북구,삼각산아이원(미아5),재개발,673,삼양로19길 113 (미아동 삼각산아이원아파트),1198,127.0177233,37.61705556,H,삼각산동,127.020836,37.61505441
강북구,미아SH-Ville(미아2),재개발,57,삼양로 246-14 (미아동 미아 에스에이치빌 아파트),1127,127.0191972,37.62542136,H,삼양동,127.018388,37.62734428
강북구,래미안트리베라1차(래미안트리베라6),재개발,1247,삼양로19길 25 (미아동 삼성래미안트리베라1차아파트),1200,127.021139,37.61569432,H,삼각산동,127.020836,37.61505441
강북구,래미안트리베라2차(래미안트리베라12),재개발,1330,삼양로27길 19 (미아동 삼성래미안트리베라아파트),1195,127.0217414,37.61612381,H,삼각산동,127.020836,37.61505441
강북구,송천동부(미아10-1),재개발,376,숭인로 39 (미아동 송천센트레빌),1213,127.0266787,37.61275742,H,송천동,127.023868,37.6183082
강북구,미아두산위브트레지움(미아8),재개발,1370,삼양로27길 95 (미아동 두산위브트레지움아파트),1197,127.0157553,37.61835218,H,삼각산동,127.020836,37.61505441
강북구,수유장기전세(프레비스타),장기전세,18,인수봉로 101 (수유동 프레비스타),1096,127.0126119,37.62896556,H,수유1동,127.0176092,37.63005817
강북구,꿈의숲 롯데캐슬(미아4),재개발행복(리츠2호),615,오현로 56(미아동 꿈의숲 롯데캐슬),1232,127.0364759,37.61841157,H,송중동,127.0337938,37.61612899
강북구,꿈의숲해링턴플레이스(미아9-1),행복(재건축),1028,강북구 오현로 45(미아동 3-770),1155,127.0344607,37.61693752,H,송중동,127.0337938,37.61612899
강서구,가양9,공공임대,914,허준로 224 (가양동 가양9단지아파트),7532,126.8628195,37.55999969,H,가양3동,126.8605419,37.56105848
강서구,가양4,영구임대,1998,양천로57길 37 (가양동 가양4단지아파트),7527,126.8520692,37.56593184,H,가양2동,126.851262,37.56737935
강서구,가양8,공공임대,1110,허준로 176 (가양동 가양8단지아파트),7533,126.8568081,37.5618605,H,가양3동,126.8605419,37.56105848
강서구,가양5,영구임대,2411,양천로57길 36 (가양동 가양5단지아파트),7526,126.8535196,37.56462738,H,가양2동,126.851262,37.56737935
강서구,방화2-1,영구임대,1563,방화대로48길 40 (방화동 방화2-1단지아파트),7519,126.8201671,37.57424482,H,방화3동,126.81355,37.57874321
강서구,방화11,영구임대,1065,개화동로21길 4 (방화동 방화11단지아파트),7611,126.8057256,37.57072031,H,방화2동,126.8067388,37.566713
강서구,방화6,영구공공,1000,금낭화로23길 25 (방화동 방화6단지아파트),7510,126.8112043,37.57813897,H,방화3동,126.81355,37.57874321
강서구,방화9,공공임대,250,양천로11길 57 (방화동 방화9단지아파트),7507,126.8071564,37.57464315,H,방화3동,126.81355,37.57874321
강서구,발산2(마곡수명산파크2단지),국민장기,629,강서로47길 158 (내발산동 마곡수명산파크2단지아파트),7634,126.8276418,37.55385797,H,발산1동,126.825127,37.55054536
강서구,발산3(마곡수명산파크3단지),장기전세,518,수명로1길 110 (내발산동 마곡수명산파크3단지아파트),7643,126.8247079,37.55185777,H,발산1동,126.825127,37.55054536
강서구,발산6(마곡수명산파크6단지),국민,399,수명로2길 63 (내발산동 마곡수명산파크6단지아파트),7635,126.8258219,37.54987533,H,발산1동,126.825127,37.55054536
강서구,발산1(마곡수명산파크1단지),국민,1421,강서로47길 108 (내발산동 마곡수명산파크1단지아파트),7634,126.8305342,37.55356537,H,발산1동,126.825127,37.55054536
강서구,발산4(마곡수명산파크4단지),국민장기,919,수명로1길 16 (내발산동 마곡수명산파크4단지아파트),7643,126.8225609,37.55204782,H,발산1동,126.825127,37.55054536
강서구,발산5(마곡수명산파크5단지),국민,948,수명로2길 105 (내발산동 마곡수명산파크5단지아파트),7635,126.8275827,37.55158665,H,발산1동,126.825127,37.55054536
강서구,발산7(마곡수명산파크7단지),국민,643,수명로2가길 22 (내발산동 마곡수명산파크7단지아파트),7642,126.8219177,37.54766287,H,발산1동,126.825127,37.55054536
강서구,마곡푸르지오,재건축,341,방화대로34길 88 (방화동 마곡푸르지오),7595,126.821195,37.57038192,H,방화1동,126.8174962,37.56866546
강서구,강서센트레빌,재건축,147,방화대로41길 9 (방화동 강서센트레빌3차),7605,126.816194,37.57136417,H,방화1동,126.8174962,37.56866546
강서구,강서동부센트리빌4차,재건축,215,남부순환로 11 (공항동 강서센트레빌4차),7622,126.8080645,37.56106286,H,공항동,126.7948382,37.55591341
강서구,유니트로원룸,기타임대,75,개화동로21길 49 (방화동 유니트로),7601,126.8056472,37.57213853,H,방화2동,126.8067388,37.566713
강서구,강서한강자이,재건축,790,양천로55길 55 (가양동 강서한강자이),7528,126.8481832,37.56632848,H,가양1동,126.8349253,37.57188424
강서구,내발산동740 기숙사(희망하우징),기타임대,193,수명로1길 131 (내발산동),7630,126.8251759,37.55406131,H,발산1동,126.825127,37.55054536
강서구,마곡14단지(마곡엠밸리14),국민장기,1270,마곡중앙로 33 (마곡동 마곡엠밸리14단지),7630,126.8240802,37.5580501,H,발산1동,126.825127,37.55054536
강서구,마곡15단지(마곡엠밸리15),국민장기,1171,마곡중앙로 36 (마곡동 마곡엠밸리15단지),7811,126.8273484,37.5574409,H,발산1동,126.825127,37.55054536
강서구,마곡6단지(마곡엠밸리6),국민장기,1466,마곡서1로 100 (마곡동 마곡엠밸리6단지),7798,126.8196234,37.5657541,H,방화1동,126.8174962,37.56866546
강서구,마곡7단지(마곡엠밸리7),국민장기,1004,마곡서로 133 (마곡동 마곡엠밸리7단지),7798,126.8238387,37.5645561,H,방화1동,126.8174962,37.56866546
강서구,마곡1단지(마곡엠밸리1),국민장기,237,마곡서1로 131 (마곡동 마곡엠밸리1단지),7598,126.8184305,37.56842237,H,방화1동,126.8174962,37.56866546
강서구,마곡2단지(마곡엠밸리2),국민장기,408,마곡서1로 146 (마곡동 마곡엠밸리2단지),7598,126.821411,37.56882497,H,방화1동,126.8174962,37.56866546
강서구,마곡3단지(마곡엠밸리3),국민장기,315,마곡서1로 132 (마곡동 마곡엠밸리3단지),7598,126.8197185,37.56853219,H,방화1동,126.8174962,37.56866546
강서구,마곡4단지(마곡엠밸리4),국민장기,420,마곡서로 175 (마곡동 마곡엠밸리4단지),7595,126.8242325,37.56890813,H,가양1동,126.8349253,37.57188424
강서구,마곡5단지(마곡엠밸리5),국민장기,439,마곡서1로 111-11 (마곡동 마곡엠밸리5단지),7599,126.817289,37.56580015,H,방화1동,126.8174962,37.56866546
강서구,가양동협동조합형공동주택,기타임대,24,양천로61길 50 (가양동 이음채),7547,126.8651906,37.55863957,H,가양3동,126.8605419,37.56105848
강서구,등촌동 장기전세주택,장기전세,54,공항대로 359 (등촌동 리본타워),7590,126.8478203,37.5578473,H,등촌3동,126.8479288,37.55888773
강서구,화곡동 청년 협동조합 주택(화곡동891-25),기타임대,15,강서로5라길 26 (화곡동 청년주택협동조합그랑),7781,126.849796,37.52920762,H,화곡8동,126.8483623,37.53263319
강서구,마곡지구 8단지(마곡엠밸리8단지),국민장기,531,마곡서1로 81 (마곡동 마곡엠밸리8단지),7599,126.8191544,37.56436639,H,방화1동,126.8174962,37.56866546
강서구,마곡지구 10단지(마곡엠밸리10단지),국민장기,550,마곡중앙1로 72 (마곡동 마곡엠밸리10단지),7629,126.8199371,37.55900126,H,공항동,126.7948382,37.55591341
강서구,마곡힐스테이트,재건축,603,마곡중앙3로 74 (마곡동 마곡힐스테이트),7599,126.8184329,37.56469676,H,방화1동,126.8174962,37.56866546
강서구,마곡지구 11단지(마곡엠밸리11단지),국민장기,347,공항대로 124 (마곡동 마곡엠밸리11단지),7808,126.8208132,37.55941461,H,공항동,126.7948382,37.55591341
강서구,마곡지구 12단지(마곡엠밸리12단지),국민장기,363,공항대로 140 (마곡동 마곡엠밸리12단지),7808,126.8232489,37.55919853,H,공항동,126.7948382,37.55591341
강서구,가양동 1457-1 모듈러 행복주택,행복(공사 건설형),30,강서로 575,7523,126.8416697,37.57170967,H,가양1동,126.8349253,37.57188424
강서구,e편한세상 염창아파트,행복(재건축),499,강서구 공항대로 583(염창동 277-24),7560,126.8702426,37.54859226,H,염창동,126.8709853,37.55373624
관악구,신림동부(신림5),재개발,592,신원로 26 (신림동 신림동부아파트),8775,126.9282708,37.48115498,H,신원동,126.9273465,37.48156356
관악구,봉천인헌,주거환경,216,낙성대로15길 66 (봉천동 인헌아파트),8800,126.961769,37.46803483,H,낙성대동,126.9584052,37.47629145
관악구,봉천신봉,주거환경,277,양녕로6나길 18 (봉천동 신봉아파트),8746,126.9489277,37.48455395,H,중앙동,126.9497897,37.48418815
관악구,신림초원,주거환경,197,미성5길 40 (신림동 초원아파트),8865,126.9140357,37.47334769,H,미성동,126.915576,37.47620735
관악구,봉천동아(봉천2-2),재개발,829,관악로37길 20 (봉천동 봉천동아아파트),8726,126.9559885,37.48755544,H,성현동,126.9481353,37.48954303
관악구,봉천우성(봉천7-1),재개발,717,관악로30길 40 (봉천동 봉천우성아파트),8735,126.9615854,37.48511728,H,행운동,126.9570868,37.48061583
관악구,봉천두산(봉천8),재개발,560,양녕로 31 (봉천동 두산아파트),8751,126.9457794,37.48515235,H,은천동,126.9425029,37.48537777
관악구,관악드림타운(봉천3),재개발,1843,구암길 106 (봉천동 관악드림타운아파트),8725,126.9486646,37.49127941,H,성현동,126.9481353,37.48954303
관악구,관악벽산블루밍,재개발,799,양녕로 117 (봉천동 벽산블루밍아파트),8715,126.9427119,37.49152454,H,은천동,126.9425029,37.48537777
관악구,관악푸르지오(봉천7-2),재개발,392,청림5길 28 (봉천동 관악푸르지오2단지아파트),8734,126.9602716,37.48959558,H,청림동,126.9586363,37.49182132
관악구,신림SH-ville(신림7),재개발,150,난곡로 80 (신림동 신림SH Ville아파트),8861,126.919545,37.46253818,H,난향동,126.9187891,37.4615015
관악구,관악청광플러스원,재건축,71,은천로15길 16 (봉천동 관악청광플러스원아파트),8715,126.9443226,37.4873923,H,은천동,126.9425029,37.48537777
관악구,e편한세상 서울대입구(봉천12-2구역),재개발행복(재건축리츠2호),1489,관악구 청룡10길 45(봉천동 1555-1),8830,126.9430557,37.47723093,H,청룡동,126.9416756,37.47909553
광진구,한라녹턴,재건축,72,영화사로16길 43 (구의동 구의동 아차산 한라아파트),4957,127.0973462,37.55383544,H,구의2동,127.0899358,37.54724565
광진구,래미안프리미어팰리스,재건축재개발,264,아차산로 345(자양동 래미안프리미어팰리스아파트),5026,127.081583,37.53750524,H,자양1동,127.0824396,37.53450738
광진구,강변SK뷰(구의3),재건축,197,광진구 아차산로 431(구의동 667),5045,127.0901908,37.53865397,H,구의3동,127.0919613,37.53798181
구로구,오류동부골든(오류1),재개발,304,고척로 49 (오류동 동부골든아파트),8253,126.841369,37.50000726,H,오류1동,126.8450507,37.49709334
구로구,구로두산(구로6),재개발,442,도림로 59 (구로동 구로두산아파트),8313,126.8889619,37.4898994,H,구로4동,126.8891619,37.4916288
구로구,고척유진마젤란아파트,재건축,175,경인로47길 128 (고척동 고척마젤란아파트),8219,126.8639211,37.50458538,H,고척1동,126.8627629,37.50035526
구로구,구로경남아너스빌,재건축,129,구로중앙로8길 41-23 (구로동 경남아너스빌),8304,126.892994,37.49368104,H,구로4동,126.8891619,37.4916288
구로구,온수힐스테이트,재건축,999,부일로9길 127 (온수동 온수 힐스테이트),8259,126.8204799,37.49759393,H,수궁동,126.8314786,37.49390322
구로구,고척벽산블루밍(고척3),재개발,339,고척로60길 30 (고척동 벽산베스트블루밍아파트),8228,126.8587666,37.50514966,H,고척2동,126.8586118,37.50671146
구로구,천왕이펜하우스2단지,국민장기,526,천왕로 92 (천왕동 천왕이펜하우스2단지),8365,126.8380864,37.48522882,H,오류2동,126.8395046,37.4888147
구로구,천왕이펜하우스6단지,국민장기,678,천왕로 9 (천왕동 천왕이펜하우스6단지),8364,126.8422575,37.47902076,H,오류2동,126.8395046,37.4888147
구로구,천왕이펜하우스5단지,국민장기,522,천왕로 10 (천왕동 천왕 이펜하우스 5단지),8365,126.8421621,37.48072633,H,오류2동,126.8395046,37.4888147
구로구,천왕이펜하우스4단지,국민장기,478,천왕로 29 (천왕동 천왕 이펜하우스 4단지),8364,126.8385945,37.48080098,H,오류2동,126.8395046,37.4888147
구로구,천왕이펜하우스1단지,국민장기,314,천왕로 91 (천왕동 천왕 이펜하우스 1단지),8364,126.8374452,37.48668938,H,오류2동,126.8395046,37.4888147
구로구,천왕이펜하우스3단지,국민장기,1044,천왕로 56 (천왕동 천왕 이펜하우스 3단지),8365,126.8389147,37.48305321,H,오류2동,126.8395046,37.4888147
구로구,천왕2-1(천왕연지타운1),국민장기,571,오류로 30 (천왕동 천왕연지타운1단지),8350,126.8399921,37.48636795,H,오류2동,126.8395046,37.4888147
구로구,천왕2-2(천왕연지타운2),국민장기,1018,오리로 1102-10 (천왕동 천왕연지타운2단지),8350,126.8433413,37.48401441,H,오류2동,126.8395046,37.4888147
구로구,개봉푸르지오,재건축,978,남부순환로 775 (개봉동 개봉푸르지오),8236,126.8471623,37.50156787,H,개봉1동,126.8511464,37.50026551
구로구,천왕공공원룸텔(천왕여성안심주택),기타임대,96,천왕로50 (천왕동 천왕이펜하우스S) ,8365,126.8386604,37.48165108,H,오류2동,126.8395046,37.4888147
구로구,천왕지구7단지(행복주택),행복(공사 건설형),374,천왕로 21 (천왕동 천왕이펜하우스7단지),8364,126.8389295,37.47917547,H,오류2동,126.8395046,37.4888147
구로구,천왕2도시형생활주택(연지마을1),행복(공사 건설형),181,오류로 36-13(오류동 천왕연지마을1단지),8350,126.8413063,37.48816786,H,오류2동,126.8395046,37.4888147
구로구,천왕2도시형생활주택(연지마을2),행복(공사 건설형),138,오리로 1102-13(천왕동 천왕연지마을2단지),8350,126.8424192,37.48469858,H,오류2동,126.8395046,37.4888147
구로구,천왕이펜하우스 8단지(천왕지구 8단지),행복(공사 건설형),298,구로구 금오로882(천왕동 산19-1),8271,126.8423166,37.47600363,H,오류2동,126.8395046,37.4888147
구로구,고척리본타운(고척동 156 장기전세),장기행복(공사 건설형),39,구로구 고척로52나길25(고척동156 고척리본타운),8228,126.8573602,37.50512671,H,고척2동,126.8586118,37.50671146
구로구,항동하버라인8단지(항동지구 8단지),국민,384,구로구 서해안로2036(항동218 항동하버라인),8368,126.8186962,37.47563907,H,항동,126.8234098,37.48018531
구로구,항동하버라인3단지,국민,1170,구로구 항동로 43(항동 171-4),8368,126.8248562,37.47892831,H,항동,126.8234098,37.48018531
구로구,항동하버라인9단지,행복(공사 건설형),298,구로구 항동로68(항동 136-1),8368,126.8258891,37.4803218,H,항동,126.8234098,37.48018531
구로구,항동하버라인10단지,행복(공사 건설형),297,구로구 항동로 60(항동 135-57),8368,126.8258231,37.47937979,H,항동,126.8234098,37.48018531
구로구,항동하버라인11단지,행복(공사 건설형),276,구로구 연동로 191-5(항동 184),8368,126.8223506,37.47806104,H,항동,126.8234098,37.48018531
구로구,항동하버라인4단지,국민,297,구로구 항동로 72(항동 84일원),8368,126.8266226,37.48124092,H,항동,126.8234098,37.48018531
구로구,항동하버라인2단지,국민,646,구로구 연동로234(항동 118-20),8368,126.8219731,37.48173352,H,항동,126.8234098,37.48018531
금천구,시흥목련,주거환경,173,금하로3길 26 (시흥동 시흥목련아파트),8615,126.8974391,37.45433501,H,시흥1동,126.9032507,37.45353927
금천구,관악벽산타운(시흥2-1),재개발,564,금하로 793 (시흥동 벽산2단지아파트),8655,126.9182454,37.4522125,H,시흥2동,126.9149053,37.44955855
금천구,시흥벽산(시흥1),재개발,1288,금하로 796 (시흥동 벽산6단지아파트),8646,126.9165259,37.44900828,H,시흥2동,126.9149053,37.44955855
금천구,백운한비치,재건축,112,금하로23길 52 (시흥동 백운한비치Ⅱ),8571,126.9093428,37.45357717,H,시흥5동,126.9083063,37.45240442
금천구,보린두레주택(금천구 시흥동),기타임대,10,시흥대로24길 50 (시흥동),8652,126.9071654,37.44127366,H,시흥3동,126.9057853,37.44033606
금천구,금천롯데캐슬골드파크1차,재건축,1743,벚꽃로 40 (독산동 금천롯데캐슬골드파크1차아파트),8608,126.8928453,37.4600584,H,독산1동,126.8970434,37.47023517
노원구,하계5,영구임대,640,섬밭로 201 (하계동 시영아파트),1862,127.0659281,37.63388332,H,하계2동,127.0679782,37.63204009
노원구,중계4,공공임대,1979,노원로19길 31 (중계동 목화아파트),1787,127.0687527,37.64348558,H,중계2.3동,127.0687352,37.64211267
노원구,중계3,영구임대,2619,노원로 331 (중계동 시영3단지목련아파트),1786,127.06966,37.64617746,H,중계2.3동,127.0687352,37.64211267
노원구,공릉1,영구임대,1395,동일로 1127 (공릉동 공릉1단지아파트),1851,127.0698548,37.62958967,H,공릉1동,127.0738213,37.6248359
노원구,월계사슴1,영구임대,1372,월계로 372 (월계동 월계사슴1단지아파트),1905,127.0596641,37.62924721,H,월계3동,127.0692594,37.62101488
노원구,월계사슴2,공공임대,775,월계로55길 16 (월계동 월계사슴2단지아파트),1864,127.0604864,37.63295777,H,월계3동,127.0692594,37.62101488
노원구,학여울청구A(하계2),재개발,486,동일로207길 186 (하계동 학여울청구아파트),1775,127.0597995,37.63795057,H,하계2동,127.0679782,37.63204009
노원구,월계청백1,공공임대,1147,초안산로 89 (월계동 월계청백1단지아파트),1869,127.0519192,37.63583293,H,월계2동,127.0507449,37.63249205
노원구,상계은빛3,공공임대,900,동일로250길 17 (상계동 은빛3단지아파트),1621,127.0567709,37.68246227,H,상계1동,127.0549489,37.67990705
노원구,양지대림2(중계4-2),재개발,331,덕릉로77길 27 (중계동 양지대림2차아파트),1706,127.072762,37.65472375,H,중계1동,127.0774886,37.65254784
노원구,양지대림1(중계4-1),재개발,468,덕릉로73길 31 (중계동 양지대림아파트),1708,127.0711196,37.65223975,H,중계1동,127.0774886,37.65254784
노원구,공릉2-6,공공임대,691,화랑로51길 81 (공릉동 공릉아파트),1800,127.0874001,37.62503484,H,공릉2동,127.0832965,37.62130854
노원구,상계불암대림(상계7),재개발,206,덕릉로94가길 41 (상계동 상계불암대림아파트),1649,127.0776788,37.66403992,H,상계3.4동,127.0832317,37.6729133
노원구,상계동아불암(상계3-1),재개발,434,덕릉로112길 13 (상계동 동아불암아파트),1647,127.0782415,37.66602909,H,상계3.4동,127.0832317,37.6729133
노원구,상계불암현대(상계3-2),재개발,472,덕릉로118길 27 (상계동 불암현대아파트),1646,127.0804233,37.66811618,H,상계3.4동,127.0832317,37.6729133
노원구,상계마들,영구임대,170,덕릉로70가길 101 (상계동 상계마들아파트),1772,127.0570245,37.64197556,H,상계6.7동,127.0669655,37.65488602
노원구,학여울청구B(하계2B),재개발,378,한글비석로 6 (하계동 학여울청구아파트),1862,127.0644673,37.63262194,H,하계2동,127.0679782,37.63204009
노원구,온수연립주택,기타임대,15,동일로239나길 27 (상계동 온수연립),1133,127.0513017,37.67640911,H,상계1동,127.0549489,37.67990705
노원구,상계장암3단지(수락산리버시티3단지),국민장기,696,누원로 28 (상계동 수락리버시티 3단지),1600,127.0535548,37.68747717,H,상계1동,127.0549489,37.67990705
노원구,상계장암4단지(수락산리버시티4단지),국민장기,548,누원로 18 (상계동 수락리버시티4단지),1601,127.0528727,37.68621458,H,상계1동,127.0549489,37.67990705
노원구,공릉공공원룸텔(희망하우징),기타임대,14,화랑로51가길 3 (공릉동),1801,127.0900362,37.62367985,H,공릉2동,127.0832965,37.62130854
노원구,공릉동 657-7 기숙사(희망하우징),기타임대,43,화랑로 464 (공릉동),1803,127.0788608,37.61850852,H,공릉1동,127.0738213,37.6248359
노원구,중계한화꿈에그린,재건축,283,중계로8길 29 (중계동 한화꿈에그린아파트),1727,127.0832694,37.64800808,H,중계본동,127.0803075,37.64782841
노원구,중계센트럴파크,국민장기,457,덕릉로70가길 21 (상계동 중계센트럴파크),1772,127.0590194,37.64285692,H,상계6.7동,127.0669655,37.65488602
노원구,수락리버타운(행복주택),행복(공사 건설형),48,누원로 19 (상계동),1601,127.0525022,37.68726222,H,상계1동,127.0549489,37.67990705
노원구,녹천역 두산위브(월계4구역),재개발,326,마들로5길25(월계동 녹천두산위브),1866,127.0522565,37.64098381,H,월계2동,127.0507449,37.63249205
노원구,상계역센트럴푸르지오(상계4),재개발,785,노원구 수락산로 12(상계동 85-33),1639,127.0749693,37.66440801,H,상계3.4동,127.0832317,37.6729133
도봉구,도봉서원,주거환경,734,마들로 684-20 (도봉동 서원아파트),1330,127.0470083,37.66986078,H,도봉2동,127.0465492,37.66971519
도봉구,도봉서광,주거환경,159,마들로 770 (도봉동 서광아파트),1323,127.0501289,37.67901597,H,도봉2동,127.0465492,37.66971519
도봉구,북한산코오롱하늘채(쌍문1),재개발,293,우이천로 367 (쌍문동 북한산코오롱하늘채아파트),1370,127.0240704,37.64788419,H,쌍문1동,127.0260803,37.64802945
도봉구,방학두레주택,기타임대,8,시루봉로15라길 63 (방학동),1314,127.0327427,37.67080767,H,방학2동,127.0349826,37.66824878
동대문구,청량리한신(청량리4),재개발,610,제기로 129 (청량리동 한신아파트),2463,127.0476458,37.58749019,H,청량리동,127.0472897,37.58625111
동대문구,전농동아(답십리6-4),재개발,220,서울시립대로 31 (전농동 동아아파트),2591,127.0458645,37.57531055,H,전농1동,127.0477057,37.57804109
동대문구,답십리동아(답십리8),재개발,492,한천로11길 10 (답십리동 동아아파트),2612,127.0610056,37.56861948,H,답십리2동,127.0612863,37.5673274
동대문구,답십리청솔우성(답십리7),재개발,432,답십리로57길 53 (답십리동 답십리청솔우성아파트),2536,127.0611762,37.57483977,H,답십리2동,127.0612863,37.5673274
동대문구,이문현대(이문1),재개발,188,한천로58길 135 (이문동 현대아파트),2422,127.0707357,37.60229776,H,이문2동,127.0651164,37.60337948
동대문구,전농SK(전농4),재개발,848,전농로10길 111 (전농동 전농SK아파트),2532,127.0631501,37.57754072,H,전농2동,127.0600226,37.57804268
동대문구,전농삼성(전농5),재개발,139,전농로 190 (전농동 전농동삼성아파트),2505,127.0555607,37.5813298,H,전농2동,127.0600226,37.57804268
동대문구,제기한신(제기2),재개발,260,회기로8길 20 (제기동 한신아파트),2467,127.0397625,37.59053252,H,제기동,127.0378184,37.58311546
동대문구,답십리두산(답십리9),재개발,310,답십리로56길 21-1 (답십리동 두산아파트),2613,127.0592488,37.5697768,H,답십리2동,127.0612863,37.5673274
동대문구,이문쌍용,재개발,245,한천로58길 75-45 (이문동 쌍용아파트),2423,127.0677966,37.60153328,H,이문2동,127.0651164,37.60337948
동대문구,답십리대우(답십리11),재개발,108,답십리로41길 7 (답십리동 답십리대우아파트),2542,127.054512,37.57308646,H,답십리1동,127.0501046,37.56976536
동대문구,홍릉동부(청량리5),재개발,150,제기로26길 26 (청량리동 동부센트레빌아파트),2484,127.0450872,37.58535098,H,청량리동,127.0472897,37.58625111
동대문구,이문중앙하이츠빌(이문4),재개발,372,휘경로11길 52 (이문동 중앙하이츠빌),2427,127.0648571,37.59699764,H,이문1동,127.0655056,37.59782195
동대문구,답십리대림(답십리10),재개발,275,답십리로60길 38 (답십리동 대림아파트),2609,127.0637778,37.571058,H,답십리2동,127.0612863,37.5673274
동대문구,이문대림(이문3),재개발,181,이문로54길 16 (이문동 이문e편한세상아파트),2407,127.0628674,37.60480156,H,이문2동,127.0651164,37.60337948
동대문구,신이문어울림,재건축,166,신이문로 9 (이문동 신이문 금호어울림),2406,127.0633541,37.60316294,H,이문2동,127.0651164,37.60337948
동대문구,용두두산위브(용두2),재개발,95,정릉천동로 16 (용두동 용두두산위브),2590,127.0353065,37.57346786,H,용신동,127.0372623,37.57580678
동대문구,답십리래미안,재개발,52,한천로33길 11 (답십리동 래미안엘파인아파트),2535,127.0669943,37.57567427,H,답십리2동,127.0612863,37.5673274
동대문구,래미안용두1차(용두1),재개발,210,고산자로29길 18 (용두동 래미안허브리츠),2567,127.0370188,37.57638511,H,용신동,127.0372623,37.57580678
동대문구,래미안아름숲(전농6),재개발,148,전농로16길 51 (전농동 래미안아름숲),2508,127.0604383,37.57833421,H,전농2동,127.0600226,37.57804268
동대문구,휘경센트레빌(휘경2),재개발,297,외대역동로 14 (휘경동 휘경센트레빌),2502,127.0686732,37.59096838,H,휘경2동,127.0686239,37.59010769
동대문구,청계한신휴플러스,재건축,725,서울시립대로 14 (답십리동 청계한신휴플러스),2593,127.0472735,37.57207425,H,답십리1동,127.0501046,37.56976536
동대문구,일성트루엘,재건축,116,천호대로83길 71-7 (장안동 일성트루엘아파트),2629,127.0653538,37.56544204,H,장안1동,127.0664347,37.56783277
동대문구,브라운스톤휘경(휘경4),재개발,451,망우로20길 86 (휘경동 브라운스톤 휘경),2501,127.0655317,37.589998,H,휘경2동,127.0686239,37.59010769
동대문구,래미안크레시티(전농7),재개발,2397,사가정로 65 (전농동 래미안크레시티아파트),2553,127.0496959,37.57550604,H,전농1동,127.0477057,37.57804109
동대문구,래미안위브(답십리16),재개발,2652,답십리로 130 (답십리동 래미안위브아파트),2598,127.0524012,37.57285496,H,답십리1동,127.0501046,37.56976536
동대문구,용두롯데캐슬리치(용두4구역),재개발,311,한빛로 73 (용두동 용두롯데캐슬리치),2577,127.0305146,37.57941666,H,용신동,127.0372623,37.57580678
동대문구,휘경마을 두레주택,기타임대,6,망우로18다길 31-5(휘경동),2498,127.0611592,37.5860585,H,휘경2동,127.0686239,37.59010769
동대문구,동대문롯데캐슬노블레스(전농11구역),재개발,584,답십리로 23길 30(전농동),2551,127.0496315,37.57672448,H,전농1동,127.0477057,37.57804109
동대문구,래미안미드카운티(답십리18구역),재개발,1009,답십리로 141,2540,127.0552818,37.57334306,H,답십리1동,127.0501046,37.56976536
동대문구,힐스테이트 청계(대농신안),행복(재건축),764,동대문구 천호대로55길 11(답십리동465 힐스테이트청계),2597,127.046159,37.57153553,H,답십리1동,127.0501046,37.56976536
동대문구,답십리파크자이아파트(답십리14구역),재개발행복(리츠2호),802,동대문구 답십리로56길 105(답십리동 25),2616,127.0584549,37.56779095,H,답십리2동,127.0612863,37.5673274
동대문구,휘경SK VIEW(휘경2구역),재개발재건축행복(재건축리츠2호),900,동대문구 휘경로 60(휘경동 128-12),2434,127.0649278,37.59372709,H,휘경1동,127.0657912,37.59296725
동대문구,한양수자인 사가정파크(면목1),행복(재건축),497,중랑구 사가정로72길 26(면목동 520-19),2260,127.0934307,37.58007117,H,면목7동,127.0869853,37.57901338
동작구,상도삼호(상도5),재개발,682,상도로 407 (상도동 삼호아파트),7026,126.9577733,37.49391739,H,상도1동,126.9497453,37.50323182
동작구,신대방,주거환경,108,보라매로 83 (신대방동 신대방아파트),7060,126.9273398,37.49665868,H,신대방2동,126.9259319,37.49894492
동작구,흑석청호,주거환경,346,서달로2길 29 (흑석동 청호아파트),6986,126.9627348,37.50190323,H,흑석동,126.9665908,37.50577502
동작구,상도건영(본동2-2),재개발,552,만양로 26 (상도동 건영아파트),6918,126.9495436,37.50763053,H,노량진1동,126.9420162,37.5123068
동작구,사당신동아(사당5),재개발,333,동작대로29길 118 (사당동 신동아아파트),6998,126.9771482,37.49104148,H,사당2동,126.9792534,37.4887525
동작구,상도신동아(상도1),재개발,925,만양로 19 (노량진동 신동아리버파크아파트),6920,126.9457185,37.50707255,H,노량진1동,126.9420162,37.5123068
동작구,상도래미안1차(상도2),재개발,164,등용로 37 (상도동 상도래미안1차아파트),6948,126.9331339,37.50523976,H,상도2동,126.942311,37.50546652
동작구,상도3쌍용,재개발,65,상도로 107 (상도동 쌍용스윗닷홈),6952,126.9310692,37.5024023,H,상도3동,126.9313282,37.49920406
동작구,본동한신휴플러스(본동2-3),재개발,134,매봉로 99 (본동 한신휴플러스아파트),6916,126.9491302,37.5092063,H,노량진1동,126.9420162,37.5123068
동작구,본동SH-ville(본동4),재개발,176,노량진로22길 60 (본동 본동 에스에이치빌),6915,126.9496893,37.51078906,H,노량진1동,126.9420162,37.5123068
동작구,상도SH-ville(상도4),재개발,953,상도로53길 70 (상도동 상도에스에이치빌),6977,126.954541,37.50253458,H,상도1동,126.9497453,37.50323182
동작구,흑석한강센트레빌(흑석5),재개발,655,흑석한강로 12 (흑석동 흑석한강센트레빌),6981,126.9645125,37.50517984,H,흑석동,126.9665908,37.50577502
동작구,두산위브(사당),재건축,451,사당로13길 31 (사당동 두산위브 트레지움),7004,126.9712548,37.485803,H,사당3동,126.9720854,37.48662464
동작구,래미안트윈파크(본동5),재개발,523,노량진로23가길 23 (본동 래미안 트윈파크),6902,126.9517825,37.51330347,H,노량진1동,126.9420162,37.5123068
동작구,흑석한강푸르지오(흑석4),재개발,863,흑석한강로 27 (흑석동 흑석한강푸르지오),6981,126.9662844,37.50409942,H,흑석동,126.9665908,37.50577502
동작구,흑석한강센트레빌2차(흑석6),재개발,963,서달로 91 (흑석동 흑석한강센트레빌2차),6975,126.958891,37.50316562,H,흑석동,126.9665908,37.50577502
동작구,사당동 303-187 공공원룸텔(구 303-37),기타임대,30,남부순환로255다길 20 (사당동),7021,126.9713764,37.47748626,H,사당1동,126.9786716,37.48315533
동작구,상도동 효성해링턴플레이스,재건축,202,상도로 207 (상도동 상도효성해링턴플레이스),6921,126.9418563,37.50557126,H,상도2동,126.942311,37.50546652
동작구,상도두산위브트레지움,재건축,582,상도로30길 40 (상도동 상도2차두산위브트레지움아파트),6964,126.942467,37.50431826,H,상도2동,126.942311,37.50546652
동작구,상도파크자이(상도제10구역),재개발,471,장승배기로11가길 11 (상도동 상도파크자이),6937,126.9389112,37.50556599,H,노량진2동,126.9373593,37.50853102
동작구,래미안 로이파크(사당1구역),행복(재건축),668,사당로 23길 112(사당동16 래미안로이파크),7001,126.9734721,37.48779573,H,사당3동,126.9720854,37.48662464
동작구,아크로리버하임(흑석7구역),재개발행복(리츠2호),1073,동작구 현충로 52(흑석동 아크로리버하임),6909,126.9622042,37.5096318,H,흑석동,126.9665908,37.50577502
동작구,에듀포레아파트(흑석8구역),재개발행복(리츠2호),545,동작구 서달로 123(흑석동 232-55),6973,126.9596731,37.50421186,H,흑석동,126.9665908,37.50577502
동작구,e편한세상상도노빌리티(상도대림),행복(재건축),893,동작구 만양로 6(상도동 903),6919,126.9469878,37.50495703,H,상도2동,126.942311,37.50546652
동작구,학수복합,행복(리츠2호),7,사당로27길 215(사당3동 177-1),6989,126.9707109,37.49146416,H,사당3동,126.9720854,37.48662464
마포구,성산,영구임대,1807,월드컵로 207 (성산동 도시개발공사성산아파트),3953,126.9014799,37.56462705,H,성산2동,126.9089971,37.56865612
마포구,염리상록,주거환경,678,숭문길 106 (염리동 상록아파트),4127,126.9467959,37.55092488,H,염리동,126.9456557,37.54706196
마포구,창전삼성,재개발,311,서강로 95 (창전동 창전동삼성아파트),4064,126.9321001,37.55204413,H,서강동,126.9320306,37.54774687
마포구,도화현대2차,재개발,793,새창로8길 72 (도화동 현대2차아파트),4180,126.9513421,37.5386455,H,도화동,126.9498826,37.54154972
마포구,공덕삼성(공덕1),재개발,226,마포대로 115-8 (공덕동 공덕삼성아파트),4145,126.9506223,37.54591501,H,아현동,126.9559037,37.55448325
마포구,마포태영(대흥태영),재개발,568,독막로 266 (대흥동 대흥동태영아파트),4153,126.9423896,37.54386754,H,용강동,126.942776,37.54227449
마포구,신공덕삼성,재개발,376,백범로37길 6 (신공덕동 신공덕1차삼성래미안아파트),4193,126.9563522,37.54241166,H,공덕동,126.9600345,37.55017435
마포구,신공덕2삼성,재개발,103,만리재로 74 (신공덕동 신공덕2차삼성래미안),4187,126.9588792,37.54648418,H,공덕동,126.9600345,37.55017435
마포구,염리삼성,재개발,109,백범로25길 83 (염리동 염리삼성래미안),4139,126.947809,37.54983792,H,염리동,126.9456557,37.54706196
마포구,공덕2삼성(공덕2),재개발,199,만리재옛길 101 (공덕동 삼성래미안공덕2차아파트),4204,126.9609287,37.55132369,H,공덕동,126.9600345,37.55017435
마포구,상암월드컵1,공공임대,820,월드컵북로47길 8 (상암동 상암월드컵아파트 1단지),3913,126.8933399,37.57475815,H,상암동,126.8946894,37.57832091
마포구,외국인임대(DMC빌),외국인,175,월드컵북로60길 13 (상암동 DMC VILLE(외국인임대주택)),3921,126.8846707,37.58234376,H,상암동,126.8946894,37.57832091
마포구,상암3-8단지,국민,840,월드컵로42길 12 (상암동 상암월드컵8단지),3906,126.8826775,37.57806108,H,상암동,126.8946894,37.57832091
마포구,망원동 동원데자뷰,재건축,101,방울내로9안길 57 (망원동 동원데자뷰아파트),3955,126.9002321,37.56034735,H,망원2동,126.9023251,37.56031117
마포구,월드컵아이파크1차,재건축,320,모래내로9길 6 (성산동 월드컵아이파크),3952,126.9141552,37.56713226,H,성산2동,126.9089971,37.56865612
마포구,월드컵아이파크2차,재건축,70,모래내로9길 3 (성산동 월드컵아이파크),3952,126.9133393,37.56690758,H,성산2동,126.9089971,37.56865612
마포구,상암월드컵파크11단지(상암2지구1단지),국민장기,588,월드컵북로 502-37 (상암동 상암월드컵파크11단지),3916,126.8822865,37.587757,H,상암동,126.8946894,37.57832091
마포구,상암월드컵파크10단지(상암2지구3단지),국민장기,861,월드컵북로 502-36 (상암동 상암월드컵파크10단지),3918,126.8819727,37.58633285,H,상암동,126.8946894,37.57832091
마포구,상암월드컵파크9단지(상암2지구4단지),국민장기,1036,월드컵북로 501 (상암동 상암월드컵파크9단지),3902,126.8781707,37.58479973,H,상암동,126.8946894,37.57832091
마포구,상암월드컵파크12단지(상암2지구2단지),국민장기,380,월드컵북로 502-7 (상암동 상암월드컵파크12단지),3915,126.8807134,37.58683073,H,상암동,126.8946894,37.57832091
마포구,래미안공덕5차(공덕5),재개발,794,마포대로 173-15 (공덕동 래미안 공덕5차),4131,126.9521826,37.55119055,H,아현동,126.9559037,37.55448325
마포구,연남동희망하우징,기타임대,30,성미산로17길 79 (연남동 서울공공주택연남동희망원룸),3974,126.9171983,37.56502168,H,연남동,126.9220774,37.56457135
마포구,메세나폴리스(합정1),재개발,617,양화로 45 (서교동 메세나폴리스),4036,126.9139502,37.5515008,H,서교동,126.9145907,37.55510931
마포구,마포자이2차(대흥3),재개발,558,서강대길 40 (대흥동 마포자이2차아파트),4111,126.9411877,37.54918573,H,대흥동,126.9434175,37.54994771
마포구,래미안마포리버웰(용강2),재개발,563,토정로31길 23 (용강동 마포 리버웰),4161,126.9414797,37.54163226,H,용강동,126.942776,37.54227449
마포구,래미안밤섬리베뉴1차(상수1),재개발,429,독막로20나길 22 (상수동 래미안 밤섬리베뉴Ⅰ),4076,126.9248948,37.54606939,H,서강동,126.9320306,37.54774687
마포구,래미안밤섬리베뉴2차(상수2),재개발,530,독막로20나길 21 (상수동 래미안 밤섬리베뉴Ⅱ),4077,126.9269794,37.54687421,H,서강동,126.9320306,37.54774687
마포구,e편한세상 마포리버파크(용강3),재개발,547,토정로31길 24 (용강동 e편한세상 마포3차),4166,126.9437583,37.54235443,H,용강동,126.942776,37.54227449
마포구,공덕자이(아현4),재개발,201,마포대로26길 22 (아현동 공덕자이 아파트),4202,126.9588378,37.55467496,H,공덕동,126.9600345,37.55017435
마포구,현석2구역,재개발,773,토정로18길 11 (현석동 래미안웰스트림),4091,126.934817,37.54386406,H,신수동,126.9352269,37.54702066
마포구,아현 I-PARK(아현1-3),재개발,497,마포대로 246(아현동 아현 I-PARK),4201,126.9585916,37.55534846,H,공덕동,126.9600345,37.55017435
마포구,마포자이3차(염리2구역),재개발행복(리츠2호),927,마포구 숭문길 98(염리동 45),4126,126.9466393,37.55026933,H,염리동,126.9456557,37.54706196
마포구,마포 창전1단지,행복(재건축),276,마포구 서강로3길 32(창전동 27-19),4065,126.9308444,37.5500194,H,서강동,126.9320306,37.54774687
마포구,신수1단지,행복(재건축),1015,마포구 광성로 17(신수동 93-102),4094,126.9355201,37.55031451,H,신수동,126.9352269,37.54702066
서대문구,홍제유원(홍제1),재개발,150,세검정로 134 (홍제동 유원하나아파트),3620,126.9519089,37.59468497,H,홍제3동,126.9497434,37.59378218
서대문구,홍은벽산(홍은5-3),재개발,1509,세검정로1길 95 (홍은동 홍은벽산아파트),3612,126.9456208,37.59582542,H,홍은1동,126.9471083,37.59891668
서대문구,북가좌삼호(북가좌2),재개발,267,거북골로 154 (북가좌동 북가좌삼호아파트),3690,126.9137835,37.57656261,H,북가좌2동,126.911205,37.58150598
서대문구,인왕산현대(홍제4),재개발,246,통일로34길 46 (홍제동 인왕산현대아파트),3633,126.9499573,37.58585705,H,홍제2동,126.9493953,37.58615243
서대문구,홍제원현대(홍제3),재개발,482,통일로34길 43 (홍제동 홍제원현대아파트),3631,126.9487945,37.58833572,H,홍제2동,126.9493953,37.58615243
서대문구,독립문극동(현저4),재개발,600,독립문공원길 17 (현저동 독립문극동아파트),3733,126.9551984,37.57238119,H,천연동,126.9584044,37.56748014
서대문구,남가좌현대(남가좌6),재개발,330,가재울로 45 (남가좌동 남가좌동현대아파트),3710,126.9208471,37.5756789,H,남가좌2동,126.9238743,37.57844785
서대문구,DMC래미안클라시스(남가좌7),재개발,358,증가로 191 (남가좌동 남가좌삼성아파트),3686,126.9173896,37.57849412,H,남가좌2동,126.9238743,37.57844785
서대문구,냉천동부(냉천),재개발,76,독립문로14길 64-6 (냉천동 동부센트레빌아파트),3745,126.9609374,37.56697653,H,천연동,126.9584044,37.56748014
서대문구,가재울아이파크(가재울뉴타운1),재개발,452,거북골로14길 32 (북가좌동 DMC아이파크아파트),3690,126.9144668,37.57695495,H,북가좌2동,126.911205,37.58150598
서대문구,DMC센트레빌(가재울뉴타운2),재개발,473,거북골로 120 (남가좌동 DMC센트레빌아파트),3690,126.9160975,37.57548326,H,남가좌2동,126.9238743,37.57844785
서대문구,홍은센트레빌(홍은10),재개발,48,통일로 553 (홍은동 홍은 센트레빌),3647,126.938208,37.5972184,H,홍은2동,126.9342291,37.58015154
서대문구,돈의문센트레빌(서대문센트레빌),재개발,120,독립문로14길 33 (냉천동 돈의문센트레빌),3746,126.9592895,37.56591992,H,천연동,126.9584044,37.56748014
서대문구,동원베네스트,재건축,195,홍은중앙로1길 65 (홍은동 동원베네스트아파트),3613,126.9444566,37.59848343,H,홍은1동,126.9471083,37.59891668
서대문구,DMC래미안e편한세상(가재울뉴타운3),재개발,3293,수색로 100 (북가좌동 DMC래미안e편한세상),3709,126.9078149,37.57472719,H,북가좌1동,126.9102037,37.57434412
서대문구,북아현1-2구역(아현역푸르지오),재개발,940,북아현로1길 50 (북아현동아현역푸르지오),3770,126.9528112,37.55969,H,북아현동,126.9569057,37.55957245
서대문구,홍제금호어울림,재건축,296,모래내로 411 (홍제동 홍제금호어울림),3644,126.9409086,37.58505729,H,홍제1동,126.944974,37.58772178
서대문구,DMC파크뷰자이(가재울4),재개발,4300,가재울미래로 2 (남가좌동 DMC파크뷰자이),3711,126.9178974,37.57442036,H,남가좌1동,126.9197863,37.57327343
서대문구,e편한세상신촌아파트(북아현1-3구역),재개발행복(리츠2호),2236,북아현로1가길 20(북아현동 e편한세상신촌 1단지) ,3768,126.9513991,37.55806808,H,북아현동,126.9569057,37.55957245
서대문구,북한산더샵(홍은12),재개발,552,통일로510(홍은동 북한산 더샵),3615,126.9411674,37.59457019,H,홍은1동,126.9471083,37.59891668
서대문구,홍제센트럴아이파크아파트(홍제2구역),재개발행복(리츠2호),906,서대문구 통일로 395(홍제동 156),3730,126.9444913,37.58461475,H,홍제1동,126.944974,37.58772178
서대문구,연희파크푸르지오,행복(재건축),396,서대문구 홍제천로136(연희동 747),3695,126.9275107,37.57513727,H,연희동,126.9352308,37.57391001
서대문구,DMC센트럴아이파크,행복(재건축),1061,서대문구 증가로 150(남가좌동 388),3670,126.9210192,37.57805476,H,남가좌2동,126.9238743,37.57844785
서대문구,북한산 두산위브(홍은14구역),재개발행복(리츠2호),457,서대문구 홍은중앙로3길 9(홍은동19-19),3610,126.9446543,37.59900178,H,홍은1동,126.9471083,37.59891668
서대문구,DMC에코자이,재개발,994,서대문구 거북골로84(남가좌동 224-1),3610,126.9184813,37.57822963,H,남가좌2동,126.9238743,37.57844785
서대문구,래미안루센티아,재개발행복(리츠2호),939,거북골로 100(남가좌동175),3689,126.9182356,37.57571839,H,남가좌2동,126.9238743,37.57844785
서초구,방배SH-ville(방배2),재개발,81,과천대로 908 (방배동 방배에스에이치빌아파트),6760,126.9834788,37.47204765,H,방배2동,126.9855736,37.47982625
서초구,래미안서초스위트,재건축,392,서운로 221 (서초동 래미안서초스위트아파트),6608,127.019869,37.50209719,H,서초4동,127.024089,37.50272828
서초구,반포자이,재건축,3410,신반포로 270 (반포동 반포자이아파트),6544,127.011582,37.50786022,H,반포1동,127.0133771,37.50509061
서초구,서초두산위브트레지움,재건축,98,서운로 194 (서초동 두산위브트레지움아파트),6613,127.0232038,37.50053838,H,서초4동,127.024089,37.50272828
서초구,래미안퍼스티지,재건축,2444,반포대로 275 (반포동 래미안퍼스티지아파트),6547,126.9959653,37.50239027,H,반포2동,126.9945035,37.50459389
서초구,서초교대이편한세상,재건축,435,서초중앙로24길 33 (서초동 서초교대이편한세상),6603,127.0170548,37.49575347,H,서초4동,127.024089,37.50272828
서초구,반포리체,재건축,1119,고무래로 35 (반포동 반포리체아파트),6597,127.0124545,37.50446749,H,반포1동,127.0133771,37.50509061
서초구,우면2지구 다세대(네이처힐가든),기타임대,115,형촌길 60 (우면동 네이처힐 가든),6765,127.0201363,37.46453058,H,양재1동,127.0267288,37.47163933
서초구,우면2-4(서초네이처힐4단지),국민장기,409,태봉로2길 65 (우면동 서초네이처힐4단지),6764,127.0257879,37.46412574,H,양재1동,127.0267288,37.47163933
서초구,우면2-5(서초네이처힐5단지),국민장기,509,태봉로2길 5 (우면동 서초네이처힐5단지),6764,127.0242166,37.46298035,H,양재1동,127.0267288,37.47163933
서초구,우면2-7(서초네이처힐7단지),국민,275,태봉로2길 10 (우면동 서초네이처힐7단지),6764,127.0232663,37.4620461,H,양재1동,127.0267288,37.47163933
서초구,우면2-2(서초네이처힐2),국민장기,133,형촌길 15 (우면동 서초네이처힐2단지),6765,127.0214626,37.46329893,H,양재1동,127.0267288,37.47163933
서초구,우면2-1(서초네이처힐1),외국인장기,178,형촌길 35 (우면동 서초네이처힐1단지),6765,127.019107,37.46410908,H,양재1동,127.0267288,37.47163933
서초구,우면2-3(서초네이처힐3단지),국민장기,1251,태봉로2길 60 (우면동 서초네이처힐3단지),6764,127.0271812,37.4656521,H,양재1동,127.0267288,37.47163933
서초구,우면2-6(서초네이처힐6),국민장기,382,태봉로2길 30 (우면동 서초네이처힐6단지),6764,127.0256508,37.46115288,H,양재1동,127.0267288,37.47163933
서초구,양재시프트(양재리본타워),장기전세,231,바우뫼로18길 20 (양재동 양재리본타워1단지),6755,127.0321484,37.47288975,H,양재1동,127.0267288,37.47163933
서초구,내곡7(서초포레스타7단지),장기전세,310,청계산로11길 7-12 (신원동 서초포레스타7단지),6802,127.056065,37.44855179,H,내곡동,127.0769169,37.45824631
서초구,서초방배롯데캐슬,재건축,744,방배천로18길 11 (방배동 방배롯데캐슬아르떼),6676,126.9831036,37.48360493,H,방배2동,126.9855736,37.47982625
서초구,내곡5(서초포레스타5단지),장기전세,547,청계산로7길 43 (신원동 서초포레스타5단지),6798,127.0576835,37.45114197,H,내곡동,127.0769169,37.45824631
서초구,내곡3(서초포레스타3단지),장기전세,482,헌릉로8길 22 (신원동 서초포레스타3단지),6798,127.0591797,37.45526904,H,내곡동,127.0769169,37.45824631
서초구,양재동212장기전세(양재리본타워2단지),장기전세,390,매헌로16길 40 (양재동 양재리본타워2단지),6770,127.0361709,37.46493104,H,양재2동,127.0412887,37.47063322
서초구,내곡1(서초더샵포레1단지),장기전세,1264,헌릉로8길 58 (내곡동 서초더샵포레),6800,127.0624773,37.45324439,H,내곡동,127.0769169,37.45824631
서초구,서초삼익롯데캐슬프레지던트,재건축,280,서초중앙로24길 57 (서초동 서초롯데캐슬프레지던트),6613,127.0194178,37.49697279,H,서초4동,127.024089,37.50272828
서초구,서초포레스타6단지(내곡),영구국민장기,585,청계산로9길 1-12 (신원동 서초포레스타6단지),6802,127.0562414,37.44968266,H,내곡동,127.0769169,37.45824631
서초구,서초포레스타2단지(내곡),국민장기,1077,헌릉로8길 45 (내곡동 서초 포레스타 2단지),6800,127.0625466,37.45468985,H,내곡동,127.0769169,37.45824631
서초구,내곡보금자리주택지구 도시형생활주택(행복주택-서초선포레),행복(공사 건설형),87,청계산로9길 1-3 (신원동 서초 선포레),6802,127.0550362,37.44853714,H,내곡동,127.0769169,37.45824631
서초구,래미안신반포팰리스,재건축,843,잠원로8길 35(잠원동 래미안 신반포 팰리스) ,6518,127.0116617,37.5150997,H,잠원동,127.0141028,37.51491869
서초구,아크로리버파크반포,재건축,1612,신반포로15길 19 (반포동 아크로리버파크),6503,126.9926731,37.506252,H,반포2동,126.9945035,37.50459389
서초구,래미안서초에스티지,재건축,421,서운로 107(서초동 래미안서초에스티지),6624,127.0254533,37.49300713,H,서초2동,127.0249585,37.4920746
서초구,서초푸르지오써밋,재건축,907,서운로 201(서초동 서초푸르지오써밋) ,6608,127.0201266,37.50132463,H,서초4동,127.024089,37.50272828
서초구,반포래미안아이파크(서초한양),행복(재건축),829,서초중앙로 220(반포동32-5 반포래미안아이파크),6599,127.0124717,37.50151093,H,반포1동,127.0133771,37.50509061
서초구,래미안서초에스티지S(서초우성2차),행복(재건축),593,서운로 104(서초동 래미안서초에스티지S),6625,127.0264914,37.4934156,H,서초2동,127.0249585,37.4920746
서초구,센트럴 IPARK(상아3차),행복(재건축),416,삼성로 629(삼성동22 센트럴아이파크),6094,127.051251,37.51576932,H,삼성2동,127.0460706,37.51126688
서초구,반포센트럴푸르지오써밋,행복(재건축),764,서초구 고무래로 89(반포동 30-20 반포센트럴푸르지오써밋),11650,127.0185009,37.5009526,H,반포1동,127.0133771,37.50509061
서초구,신반포자이(반포한양),행복(재건축),607,서초구 평창길 75(잠원동 66),3002,127.00806,37.51017745,H,반포3동,127.0035469,37.50878544
서초구,방배아트자이(방배3),행복(재건축),353,서초구 명달로 9길 57(방배동 992),6706,127.0020337,37.48015301,H,방배3동,126.9999955,37.47843957
서초구,래미안신반포리오센트(신반포18차24차),행복(재건축),475,서초구 잠원로 14길 32(잠원동 52),6516,127.0141425,37.51793353,H,잠원동,127.0141028,37.51491869
성동구,청계벽산(하왕3),재개발,510,무학로 50 (하왕십리동 벽산아파트),4703,127.0326727,37.5691096,H,왕십리도선동,127.0255316,37.56788114
성동구,옥수극동그린(옥수5-2),재개발,583,독서당로 175 (옥수동 극동그린아파트),4732,127.0098102,37.54161608,H,옥수동,127.0134338,37.54358864
성동구,옥수하이츠(옥수8),재개발,238,한림말길 50 (옥수동 옥수하이츠아파트),4736,127.0168229,37.53993979,H,옥수동,127.0134338,37.54358864
성동구,옥수삼성(옥수9),재개발,330,독서당로 218 (옥수동 옥수삼성아파트),4734,127.0155544,37.54262944,H,옥수동,127.0134338,37.54358864
성동구,행당대림(하왕2-1),재개발,1005,행당로 79 (행당동 행당동 대림아파트),4713,127.027507,37.55820535,H,행당2동,127.0293402,37.55826482
성동구,행당한진(금호1-6),재개발,728,행당로 82 (행당동 행당 한진타운),4717,127.0273997,37.55480888,H,행당2동,127.0293402,37.55826482
성동구,금호대우(금호8),재개발,508,독서당로 272 (금호동4가 금호동 대우아파트),4738,127.0179254,37.54533003,H,금호4가동,127.0224013,37.54719127
성동구,금호벽산(금호6),재개발,1214,금호로 100 (금호동1가 벽산아파트),4718,127.0260923,37.55453176,H,금호1가동,127.0216386,37.55487153
성동구,하왕금호베스트빌(하왕1-3),재개발,274,난계로 114-31 (하왕십리동 금호 베스트빌),4711,127.0259523,37.56123125,H,왕십리2동,127.0305048,37.56110807
성동구,하왕극동미라주(하왕5),재개발,191,난계로 73 (하왕십리동 극동미라주 아파트),4721,127.0232984,37.55948756,H,왕십리2동,127.0305048,37.56110807
성동구,행당한신(행당2),재개발,159,고산자로 164 (행당동 행당한신아파트),4746,127.0354241,37.55506876,H,행당1동,127.0362034,37.55850438
성동구,마장SH-VILLE,국민,400,마조로15가길 23 (마장동 마장 에스에이치빌),4759,127.0403884,37.56463719,H,마장동,127.0453258,37.56637955
성동구,와이엠프라젠,재건축,83,자동차시장1길 14 (용답동 와이엠프라젠아파트),4808,127.0586931,37.56131745,H,용답동,127.0555791,37.56407582
성동구,서울숲아이파크,재건축,241,동일로 237 (송정동 서울숲아이파크),4800,127.0687021,37.55250093,H,송정동,127.0695736,37.55453586
성동구,왕십리주상복합,장기전세,97,청계천로 474 (하왕십리동 왕십리 모노퍼스 주상복합),4702,127.0295629,37.56953317,H,왕십리도선동,127.0255316,37.56788114
성동구,행당두산위브,재개발,114,행당로8길 8 (행당동 행당두산위브아파트),4716,127.0309511,37.55727232,H,행당2동,127.0293402,37.55826482
성동구,서울숲행당푸르지오(행당5),재개발,94,고산자로 177 (행당동 서울숲행당푸르지오아파트),4716,127.0335776,37.55573045,H,행당2동,127.0293402,37.55826482
성동구,래미안하이리버(금호17),재개발,96,금호로 111 (금호동2가 하이리버),4728,127.022907,37.55137253,H,금호2.3가동,127.0209184,37.55329311
성동구,래미안하이리버(금호19),재개발,210,금호로 111 (금호동2가 하이리버),4728,127.022907,37.55137253,H,금호2.3가동,127.0209184,37.55329311
성동구,금호자이2차(금호18),재개발,403,금호산8길 14 (금호동3가 금호자이2차),4729,127.0221903,37.55071593,H,금호2.3가동,127.0209184,37.55329311
성동구,서울숲2차푸르지오(금호14),재개발,121,금호로3길 11 (금호동4가 서울숲2차푸르지오),4737,127.0238917,37.54745137,H,금호4가동,127.0224013,37.54719127
성동구,래미안옥수리버젠(옥수12),재개발,310,매봉길 17 (옥수동 래미안 옥수 리버젠),4733,127.0144609,37.54648253,H,옥수동,127.0134338,37.54358864
성동구,왕십리텐즈힐2구역(왕십리뉴타운2),재개발,211,마장로 137 (상왕십리동 텐즈힐),4700,127.0250536,37.56782502,H,왕십리도선동,127.0255316,37.56788114
성동구,왕십리텐즈힐1구역,재개발,333,무학로 33 (하왕십리동 텐즈힐),4702,127.0263479,37.56916416,H,왕십리도선동,127.0255316,37.56788114
성동구,신금호파크자이(금호13),재개발,1156,금호로 173 (금호동2가 신금호파크자이),4722,127.018153,37.55628641,H,금호2.3가동,127.0209184,37.55329311
성동구,e편한세상옥수파크힐스(옥수13),재개발,1976,매봉길 50 (옥수동 옥수 파크힐스) ,4731,127.0121202,37.54729549,H,옥수동,127.0134338,37.54358864
성동구,왕십리센트라스(왕십리3),재개발,2529,왕십리로 410 (하왕십리동 센트라스) ,4701,127.0240825,37.5665905,H,왕십리도선동,127.0255316,37.56788114
성동구,왕십리자이(하왕1-5),재개발행복(리츠2호),713,난계로 100(하왕십리동 왕십리자이),4711,127.0246515,37.5615293,H,왕십리2동,127.0305048,37.56110807
성동구,힐스테이트서울숲리버,재개발행복(리츠2호),606,독서당로 344,4743,127.0257655,37.54645258,H,금호4가동,127.0224013,37.54719127
성동구,금호파크힐스이편한세상아파트(금호제15),재개발행복(리츠2호),1330,금호로 110(금호동1가 e편한세상금호파크힐스),4721,127.0244703,37.55295293,H,금호1가동,127.0216386,37.55487153
성동구,서울숲리버뷰자이(행당제6구역),재개발행복(리츠2호),1034,고산자로2길 65(행당동),4745,127.0388365,37.55619853,H,행당1동,127.0362034,37.55850438
성북구,동소문한진,재개발,580,성북로4길 52 (돈암동 한신한진아파트),2831,127.012706,37.59447253,H,돈암2동,127.0105809,37.59801625
성북구,종암SK,재개발,465,종암로24가길 53 (종암동 SK아파트),2798,127.0379642,37.60084117,H,종암동,127.0352129,37.59906023
성북구,돈암풍림(돈암3-3),재개발,309,북악산로 898 (돈암동 풍림아파트),2840,127.0222247,37.59703877,H,돈암1동,127.0263863,37.60341972
성북구,돈암삼성(돈암3-2),재개발,736,동소문로34길 24 (돈암동 삼성아파트),2807,127.0231395,37.59899275,H,돈암1동,127.0263863,37.60341972
성북구,길음동부(길음3),재개발,300,숭인로2길 61 (길음동 길음동동부센트레빌아파트),2726,127.0249739,37.60935341,H,길음2동,127.0273116,37.60669551
성북구,상월곡동아(상월곡),재개발,278,장월로1길 28 (상월곡동 동아에코빌아파트),2753,127.045612,37.60877249,H,월곡2동,127.0478865,37.60579157
성북구,월곡두산,재개발,458,오패산로 46 (하월곡동 월곡두산위브아파트),2750,127.0387095,37.60747384,H,월곡1동,127.0357756,37.61055309
성북구,정릉풍림(정릉4),재개발,332,솔샘로25길 11-14 (정릉동 정릉풍림아이원아파트),2702,127.0072804,37.61632479,H,정릉4동,127.0069995,37.6133766
성북구,길음뉴타운4단지,재개발,276,길음로 118 (길음동 길음뉴타운),2723,127.0208476,37.61132386,H,길음1동,127.0195028,37.61039832
성북구,길음뉴타운3단지,재개발,282,길음로13길 39 (길음동 길음뉴타운),2715,127.0162235,37.61004419,H,길음1동,127.0195028,37.61039832
성북구,장월SH-VILLE,국민,254,한천로101길 54 (장위동 장월 에스에이치빌 1단지),2758,127.0476984,37.62274041,H,장위3동,127.0566058,37.61654912
성북구,종암SH-Ville,재개발,104,종암로9길 71 (종암동 종암2차 아이파크),2810,127.032513,37.59630307,H,종암동,127.0352129,37.59906023
성북구,길음SH-Ville(길음5),재개발,90,길음로 74 (길음동 길음뉴타운),2724,127.0210339,37.60928966,H,길음1동,127.0195028,37.61039832
성북구,월곡3sh-ville(월곡3),재개발,288,성북구 오패산로 90 (하월곡동 래미안월곡아파트),2741,127.0369136,37.60994709,H,월곡1동,127.0357756,37.61055309
성북구,월곡2sh-ville(월곡2),재개발,209,회기로5길 142 (하월곡동 월곡2에스에이치빌),2794,127.0417368,37.59750813,H,월곡2동,127.0478865,37.60579157
성북구,삼선sh-ville(삼선1),재개발,285,보문로29다길 25-9 (삼선동3가 삼선1에스에이치빌),2873,127.0138718,37.58490188,H,삼선동,127.0146742,37.59083671
성북구,정릉라온유(길음10),재건축,236,정릉로 307 (정릉동 라온유 아파트),2719,127.0178662,37.60322851,H,정릉1동,127.0166558,37.60144652
성북구,래미안석관,재개발,80,화랑로 214 (석관동 래미안석관),2790,127.0548669,37.60915931,H,석관동,127.061437,37.6129824
성북구,래미안종암2차(종암4),재개발,206,종암로23길 35 (종암동 래미안세레니티),2804,127.0297513,37.59816479,H,종암동,127.0352129,37.59906023
성북구,길음뉴타운8단지(길음8),재개발,120,길음로 33 (길음동 길음뉴타운),2720,127.0220094,37.60504925,H,길음1동,127.0195028,37.61039832
성북구,길음뉴타운7단지(길음7),재개발,99,길음로13길 22 (길음동 길음7구역 두산위브아파트),2715,127.0193237,37.60944177,H,길음1동,127.0195028,37.61039832
성북구,래미안종암3차(종암5),재개발,188,종암로24가길 80 (종암동 래미안라센트),2799,127.0392269,37.59931367,H,종암동,127.0352129,37.59906023
성북구,길음뉴타운9단지(정릉길음9),재개발,242,길음로9길 50 (길음동 길음뉴타운),2721,127.020948,37.60269651,H,길음1동,127.0195028,37.61039832
성북구,종암2차SK뷰(종암6),재개발,393,종암로24길 35 (종암동 종암2차SK뷰아파트),2798,127.0346405,37.60142892,H,종암동,127.0352129,37.59906023
성북구,희망하우징(정릉 380-3),기타임대,54,정릉로 199 (정릉동 정릉희망하우징),2710,127.006891,37.60695012,H,정릉2동,127.0111481,37.6044745
성북구,동일하이빌뉴시티(신월곡),재건축,451,종암로 167 (하월곡동 동일하이빌뉴시티),2734,127.0309904,37.60505876,H,길음2동,127.0273116,37.60669551
성북구,e편한세상(보문4),재개발,440,보문사길 40 (보문동3가 이편한세상보문),2874,127.0174538,37.5836665,H,보문동,127.0228098,37.5803803
성북구,금호어울림센터힐(돈암5),재개발,490,동소문로34길 73 (돈암동 길음역 금호어울림 센터힐),2807,127.0223277,37.5997975,H,돈암1동,127.0263863,37.60341972
성북구,정릉한화꿈에그린(정릉10),재개발,349,아리랑로19가길 21 (정릉동 정릉 꿈에그린아파트),2820,127.0120121,37.60185785,H,정릉2동,127.0111481,37.6044745
성북구,돈암정릉,재개발,629,아리랑로 75 (돈암동 돈암코오롱하늘채),2826,127.0136255,37.59883026,H,돈암2동,127.0105809,37.59801625
성북구,보문3구역(보문파크뷰자이),재개발행복(리츠2호),1186,보문사길 111(보문동6가 보문파크뷰자이) ,2874,127.0178911,37.58287311,H,보문동,127.0228098,37.5803803
성북구,연극인맞춤형주택(삼선동2가77),기타임대,11,삼선동2가 77,2864,127.0094909,37.58772621,H,삼선동,127.0146742,37.59083671
성북구,꿈의숲코오롱하늘채,재개발행복(리츠2호),513,돌곶이로 220(장위동 꿈의숲코오롱하늘채아파트),2757,127.0465289,37.61898673,H,장위3동,127.0566058,37.61654912
성북구,연극인맞춤형주택(성북동 186-12),기타임대,12,성북구 성북로9길 28(성북동 186-12),2880,127.0025622,37.59126088,H,성북동,127.0032791,37.59105021
성북구,래미안 길음 센터피스(길음2구역),재개발재건축행복(리츠2호),2352,성북구 숭인로 50(길음동 498-1),2727,127.028784,37.61198667,H,길음2동,127.0273116,37.60669551
성북구,래미안아트리치(석관2구역),재개발행복(리츠2호),1091,성북구 돌곶이로 8길 22(석관동 46-50),2786,127.0622674,37.60654322,H,석관동,127.061437,37.6129824
성북구,래미안장위포레카운티(장위1구역),재개발,939,성북구 장월로 160(장위동 144-24),2763,127.0522534,37.61792153,H,장위3동,127.0566058,37.61654912
성북구,장위퍼스트하이,재개발행복(리츠2호),1562,성북구 한천로 713(장위동 173-124),2760,127.051719,37.62128579,H,장위3동,127.0566058,37.61654912
성북구,롯데캐슬골든힐스(길음3),행복(재건축),399,성북구 서경로 60(정릉동 192),2715,127.0154584,37.60992599,H,정릉1동,127.0166558,37.60144652
송파구,마천대성,주거환경,71,성내천로34길 8 (마천2동 대성아파트),5750,127.1532366,37.498547,H,마천2동,127.1485437,37.49684928
송파구,거여6,공공임대,660,양산로2길 38 (거여동 거여6단지아파트),5789,127.1461865,37.48846422,H,거여2동,127.1469088,37.49352121
송파구,오금현대백조(오금2),재개발,153,양재대로72길 20 (오금동 현대백조아파트),5656,127.1287153,37.50889818,H,오금동,127.1280994,37.50300006
송파구,거여3,공공임대,598,양산로2길 44 (거여동 거여3단지아파트),5778,127.1475425,37.49046313,H,거여2동,127.1469088,37.49352121
송파구,장지11(송파파인타운11단지),국민장기,333,송파대로8길 58 (장지동 송파파인타운11단지),5813,127.1337902,37.48023216,H,장지동,127.1311238,37.4837116
송파구,장지10(송파파인타운10단지),국민장기,545,송파대로8길 20 (장지동 송파파인타운10단지),5813,127.1311867,37.47813402,H,장지동,127.1311238,37.4837116
송파구,장지7(송파파인타운7단지),국민,537,충민로4길 19 (장지동 송파파인타운7단지),5812,127.1299527,37.47920992,H,장지동,127.1311238,37.4837116
송파구,장지9(송파파인타운9단지),국민장기,796,송파대로8길 17 (장지동 송파파인타운9단지),5815,127.1291959,37.4780034,H,장지동,127.1311238,37.4837116
송파구,장지4(송파파인타운4단지),국민장기,181,새말로12길 16 (장지동 송파파인타운4단지),5811,127.1301294,37.48202781,H,장지동,127.1311238,37.4837116
송파구,장지5(송파파인타운5단지),국민,455,충민로4길 5 (장지동 송파파인타운5단지),5812,127.1297265,37.47962067,H,장지동,127.1311238,37.4837116
송파구,장지6(송파파인타운6단지),국민장기,564,충민로6길 14 (장지동 송파파인타운6단지),5812,127.1314396,37.48069773,H,장지동,127.1311238,37.4837116
송파구,장지2(송파파인타운2단지),국민,374,충민로 151 (장지동 송파파인타운2단지),5799,127.1313064,37.48351714,H,장지동,127.1311238,37.4837116
송파구,장지8(송파파인타운8단지),국민장기,700,충민로4길 6 (장지동 송파파인타운8단지),5815,127.1280781,37.47965382,H,장지동,127.1311238,37.4837116
송파구,장지1(송파파인타운1단지),장기전세,221,충민로 188 (장지동 송파파인타운1단지),5792,127.1345477,37.48622886,H,장지동,127.1311238,37.4837116
송파구,마천1(송파파크데일1단지),국민장기,812,성내천로37길 37 (마천동 송파파크데일1단지),5748,127.1581013,37.49878503,H,마천1동,127.1499716,37.49607982
송파구,마천2(송파파크데일2단지),국민장기,889,성내천로47길 38 (마천동 송파파크데일2단지),5748,127.158163,37.49634097,H,마천1동,127.1499716,37.49607982
송파구,송파래미안파인탑,재건축,794,오금로32길 31 (송파동 래미안송파파인탑),5673,127.1194889,37.50298368,H,송파2동,127.1167664,37.50233785
송파구,문정공공원룸텔,기타임대,31,새말로 114-1 (문정동 서울공공주택문정동희망원룸),5810,127.1268203,37.48260869,H,장지동,127.1311238,37.4837116
송파구,송파파크데일3단지(행복주택),행복(공사 건설형),148,성내천로47길 22 (마천동 송파파크데일3단지),5748,127.1578651,37.49479939,H,마천1동,127.1499716,37.49607982
송파구,위례지구10블럭(위례포레샤인),국민장기,2200,위례순환로 477(장지동 위례포레샤인23단지),5720,127.1365672,37.47502106,H,위례동,127.1442615,37.48115544
송파구,송파레미니스(1단지),국민장기,575,성내천로 6(오금동 송파레미니스),5270,127.1348282,37.50833724,H,오금동,127.1280994,37.50300006
송파구,송파레미니스 2단지(오금지구 2단지),국민,818,동남로 341(송파레미니스 2단지),5721,127.1380298,37.50638593,H,오금동,127.1280994,37.50300006
송파구,거여리본타운,행복(공사 건설형),128,오금로53길 14(거여동 12-12 거여리본타운),5744,127.142295,37.49567801,H,거여1동,127.1432652,37.49697834
송파구,송파헬리오시티(가락시영),행복(재건축),9510,송파구 송파대로 345(가락동 479),5698,127.1025318,37.49761457,H,가락1동,127.10729,37.49974834
양천구,신정삼성(신정6-2),재개발,506,신목로 5 (신정동 목동삼성아파트),8016,126.8764675,37.51722556,H,신정2동,126.8707009,37.51922043
양천구,신정양천,공공임대,2998,목동로3길 57(신정동 양천아파트),8100,126.8621642,37.50945426,H,신정7동,126.8596877,37.5144001
양천구,목동현대B,재개발,564,신목로 10 (신정동 목동현대아파트),8008,126.8762861,37.51842596,H,신정2동,126.8707009,37.51922043
양천구,목동2차우성(신정5),재개발(리츠2호),1140,목동남로4길 6-46 (신정동 목동2차우성아파트),8104,126.8647673,37.50657162,H,신정7동,126.8596877,37.5144001
양천구,신트리2,공공임대,698,신정로 275 (신정동 신트리2단지아파트),8078,126.8530185,37.51301571,H,신정3동,126.8547999,37.51512221
양천구,신정학마을2,공공임대,510,신정로14길 1 (신정동 학마을아파트),8108,126.8448385,37.50899029,H,신정3동,126.8547999,37.51512221
양천구,신정푸른마을1,공공임대,500,신정로7길 70 (신정동 푸른마을1단지아파트),8048,126.836566,37.51302608,H,신정3동,126.8547999,37.51512221
양천구,신월동도센트리움,재건축,99,오목로17길 7 (신월동 동도센트리움아파트),7935,126.8462974,37.5239747,H,신월2동,126.8445812,37.52498058
양천구,장수마을동원데자뷰,재건축,118,오목로 76-2 (신월동 장수마을2단지동원데쟈뷰아파트),8028,126.8454817,37.52203648,H,신월2동,126.8445812,37.52498058
양천구,수명산롯데캐슬,재건축,215,월정로 303 (신월동 수명산롯데캐슬),7900,126.828698,37.54508073,H,신월5동,126.8271871,37.53856872
양천구,양천롯데캐슬,재건축,317,오목로5길 19 (신월동 양천롯데캐슬),7930,126.8399476,37.52350315,H,신월4동,126.8400387,37.52466457
양천구,신정이펜하우스2단지(신정3지구2단지),국민장기,471,신정이펜2로 55 (신정동 신정이펜하우스2단지),8045,126.8308647,37.51513253,H,신정3동,126.8547999,37.51512221
양천구,신정이펜하우스5단지(신정3지구5단지),국민장기,238,신정이펜1로 27 (신정동 신정이펜하우스5단지),8051,126.8334197,37.51104164,H,신정3동,126.8547999,37.51512221
양천구,신정이펜하우스3단지,국민장기,1339,신정이펜1로 50 (신정동 신정이펜하우스3단지),8050,126.8293575,37.51335106,H,신정3동,126.8547999,37.51512221
양천구,신정이펜하우스4단지,국민장기,546,신정이펜1로 51 (신정동 신정이펜하우스4단지),8051,126.8311041,37.51085103,H,신정3동,126.8547999,37.51512221
양천구,신정이펜하우스1단지,국민장기,466,신정이펜1로 99 (신정동 신정이펜하우스1단지),8046,126.8258571,37.51466358,H,신정3동,126.8547999,37.51512221
양천구,신정뉴타운두산위브(신정1-2),재개발,357,신월로20길 7 (신월동 신정뉴타운두산위브아파트),8063,126.8460734,37.51928262,H,신월2동,126.8445812,37.52498058
양천구,신정뉴타운롯데캐슬(신정1-4),재개발,930,중앙로29길 61 (신월동 신정뉴타운롯데캐슬),8061,126.848125,37.51954197,H,신월2동,126.8445812,37.52498058
양천구,신정공공주택(신정도시마을주택),기타임대,92,신정로13가길 6 (신정동 신정도시마을주택),8080,126.8434541,37.51147757,H,신정3동,126.8547999,37.51512221
양천구,목동센트럴푸르지오,재건축,248,오목로 354 (목동 목동센트럴푸르지오),8007,126.8767961,37.52398126,H,목1동,126.8711388,37.53035368
양천구,목동힐스테이트(신정제4구역),재개발,1081,중앙로36길 15 (신정동 목동힐스테이트),8083,126.8559455,37.52077533,H,신정1동,126.854291,37.51853098
양천구,신정4지구보금자리주택(신정숲속마을),국민장기,560,신정로 110 (신정동 신정숲속마을),8111,126.8339307,37.50612378,H,신정3동,126.8547999,37.51512221
양천구,신정3A6 이든채단지,행복(리츠1호),499,양천구 신정로7길 75(신정동 1320-8),8049,126.8337256,37.51305752,H,신정3동,126.8547999,37.51512221
영등포구,신기목련,주거환경,213,신길로42가길 34 (신길동 신기목련아파트),7362,126.9153892,37.5087342,H,신길1동,126.9214182,37.51111638
영등포구,양평상록수,주거환경,176,영등포로 17 (양평동2가 상록수아파트),7275,126.8834845,37.52372108,H,양평1동,126.8882412,37.52367847
영등포구,신길삼성(신길2-3),재개발,387,신길로42길 25 (신길동 삼성아파트),7362,126.9137354,37.50731887,H,신길4동,126.911287,37.50845665
영등포구,당산SH-VILLE,공공임대,195,영신로 183 (당산동3가 당산 SH VILLE),7258,126.901423,37.52449264,H,당산1동,126.8973845,37.52497339
영등포구,태승훼밀리아파트,재건축,64,선유서로34길 6 (양평동3가 양평동1차 태승훼미리아파트),7270,126.8871875,37.52655607,H,양평1동,126.8882412,37.52367847
영등포구,영등포아트자이(도림16),재개발,836,도영로 66 (도림동 영등포아트자이아파트),7364,126.9001766,37.51039494,H,도림동,126.8959445,37.50943884
영등포구,래미안영등포프레비뉴(신길11),재개발,949,가마산로 442 (신길동 래미안영등포프레비뉴),7395,126.9095271,37.50498194,H,신길3동,126.9077506,37.50730066
영등포구,보라매 신동아 파밀리에,재건축,247,디지털로 420 (대림동 신대림2차 신동아파밀리에),7439,126.9049351,37.49340383,H,대림1동,126.9058337,37.49546714
영등포구,신길7구역(래미안에스티움),재개발,1722,신풍로 77(신길동 래미안에스티움),7390,126.9115445,37.50041961,H,신길6동,126.9098547,37.49940227
영등포구,영등포1-4구역(아크로타워스퀘어),재개발행복(리츠2호),1221,국회대로 54길10(영등포동7가 아크로타워 스퀘어),7247,126.9064302,37.52365869,H,영등포동,126.90759,37.5237925
영등포구,문래동모아미래도,재건축,222,선유로9나길 5(문래동5가 문래동모아미래도아파트) ,7285,126.8867208,37.51727377,H,문래동,126.8994947,37.51711847
영등포구,신길14구역(신길뉴타운아이파크),재개발행복(리츠2호),612,영등포구 가마산로426(신길동 347-50),7394,126.903613,37.50411798,H,신길3동,126.9077506,37.50730066
영등포구,신길5(보라매SK-VIEW),재개발,1512,여의대방로35가길 19(신길동 1583-1),7391,126.9175044,37.50373971,H,신길7동,126.9214775,37.50637353
용산구,산천리버힐삼성(산천삼성),재개발,363,효창원로13길 7 (산천동 리버힐삼성아파트),4358,126.9520964,37.53569675,H,원효로2동,126.9515302,37.53436042
용산구,도원삼성(도원),재개발,534,새창로8길 7 (도원동 도원동삼성래미안아파트),4354,126.9563925,37.53970507,H,용문동,126.9598828,37.53768644
용산구,용산e편한세상(신계),재개발,867,원효로 216 (신계동 용산e편한세상),4368,126.9665272,37.53672336,H,원효로1동,126.9676901,37.53713382
용산구,용산롯데캐슬센터포레,재개발행복(리츠2호),478,용산구 백범로 313(효창동 13-2),4317,126.9629485,37.53930231,H,효창동,126.9618989,37.54237952
은평구,수색대림(수색2-1),재개발,464,은평터널로 66 (수색동 대림한숲타운아파트),3492,126.9016471,37.58688328,H,수색동,126.8936722,37.58352053
은평구,불광SH-ville(불광1),재개발,100,불광로2길 46 (불광동 불광에스에이치빌),3366,126.935676,37.61153909,H,불광1동,126.9320869,37.61035877
은평구,응암SH-ville(응암6),재개발,136,백련산로 146-30 (응암동 응암 SH-VILLE),3475,126.9268655,37.5980402,H,응암1동,126.9267869,37.60069699
은평구,상림마을8-2단지(은평1-1임대),국민장기,707,진관4로 17 (진관동 은평뉴타운상림마을),3302,126.9229005,37.64364593,H,진관동,126.9210659,37.63496688
은평구,상림마을8-1단지(은평1-2임대),국민장기,335,진관4로 37 (진관동 은평뉴타운상림마을),3302,126.925074,37.64446939,H,진관동,126.9210659,37.63496688
은평구,상림마을7-3단지(은평1-3임대),국민장기,255,진관4로 47 (진관동 은평뉴타운상림마을),3303,126.9266106,37.64571308,H,진관동,126.9210659,37.63496688
은평구,상림마을7-2단지(은평1-4임대),국민장기,241,진관4로 77 (진관동 은평뉴타운상림마을),3303,126.9280585,37.64669379,H,진관동,126.9210659,37.63496688
은평구,상림마을6-4단지(은평1-5임대),국민장기,318,진관4로 87 (진관동 은평뉴타운상림마을),3304,126.929665,37.64784198,H,진관동,126.9210659,37.63496688
은평구,상림마을6-3단지(은평1-6임대),국민장기,379,진관4로 107 (진관동 은평뉴타운상림마을),3304,126.9308871,37.64975198,H,진관동,126.9210659,37.63496688
은평구,상림마을6-2단지(은평1-7임대),국민장기,378,진관4로 100 (진관동 은평뉴타운상림마을),3304,126.9331512,37.64980599,H,진관동,126.9210659,37.63496688
은평구,상림마을6-1단지(은평1-8임대),국민장기,208,진관4로 78-7 (진관동 은평뉴타운상림마을),3304,126.930528,37.64739227,H,진관동,126.9210659,37.63496688
은평구,상림마을7-1단지(은평1-9임대),국민장기,127,진관4로 78-8 (진관동 은평뉴타운상림마을),3303,126.9283245,37.64609498,H,진관동,126.9210659,37.63496688
은평구,상림마을7-4단지(은평1-10임대),국민장기,230,진관4로 48-17 (진관동 은평뉴타운상림마을),3303,126.9273213,37.64512878,H,진관동,126.9210659,37.63496688
은평구,상림마을7-5단지(은평1-11임대),국민장기,187,진관4로 48-8 (진관동 은평뉴타운상림마을),3303,126.9282127,37.64395706,H,진관동,126.9210659,37.63496688
은평구,상림마을8-3단지(은평1-12임대),국민장기,551,진관3로 70 (진관동 은평뉴타운상림마을),3302,126.9231411,37.64225983,H,진관동,126.9210659,37.63496688
은평구,박석고개1-3단지(은평2-1임대),국민장기,947,진관1로 21-10 (진관동 은평뉴타운 박석고개),3311,126.9193989,37.63427074,H,진관동,126.9210659,37.63496688
은평구,박석고개1-1단지(은평2-12임대),국민장기,660,진관1로 21-9 (진관동 은평뉴타운 박석고개),3311,126.919503,37.63292446,H,진관동,126.9210659,37.63496688
은평구,구산그린빌,주거환경,203,갈현로7길 56 (구산동 구산그린빌),3428,126.9042795,37.60513475,H,구산동,126.9103762,37.61175703
은평구,마고정3-2단지(은평2-3임대),국민장기,659,진관2로 90 (진관동 은평뉴타운 마고정),3310,126.9257664,37.63387704,H,진관동,126.9210659,37.63496688
은평구,마고정3-3단지(은평2-2임대),국민장기,434,진관2로 60 (진관동 은평뉴타운 마고정),3310,126.922797,37.63391604,H,진관동,126.9210659,37.63496688
은평구,마고정3-1단지(은평2-11임대),국민장기,469,진관1로 55 (진관동 은평뉴타운 마고정),3310,126.9278173,37.63156638,H,진관동,126.9210659,37.63496688
은평구,우물골2-1단지(은평2-4임대),국민장기,143,진관2로 67 (진관동 은평뉴타운 우물골),3306,126.9241779,37.63474079,H,진관동,126.9210659,37.63496688
은평구,우물골2-2단지(은평2-5임대),국민장기,387,진관2로 77 (진관동 은평뉴타운우물골),3306,126.9266554,37.63458108,H,진관동,126.9210659,37.63496688
은평구,폭포동4-1단지(은평3-10임대),장기전세,297,진관1로 77-8 (진관동 은평뉴타운 폭포동),3310,126.9305957,37.63136587,H,진관동,126.9210659,37.63496688
은평구,구파발9-1단지(은평3-3임대),국민장기,1022,진관3로 15-35 (진관동 은평뉴타운 구파발),3300,126.9174116,37.64256139,H,진관동,126.9210659,37.63496688
은평구,북한산힐스테이트3차(불광3),재개발,147,불광로14길 10-4 (불광동 북한산현대힐스테이트3차아파트),3362,126.9342866,37.6197849,H,불광1동,126.9320869,37.61035877
은평구,북한산래미안(불광6),재개발,135,불광로2길 41 (불광동 북한산래미안아파트),3366,126.9361998,37.61163065,H,불광1동,126.9320869,37.61035877
은평구,구파발10-2단지(은평3-4임대),국민장기,423,진관3로 15-35 (진관동 은평뉴타운 구파발),3300,126.9174116,37.64256139,H,진관동,126.9210659,37.63496688
은평구,북한산힐스테이트(불광7),재개발,188,통일로 796 (불광동 북한산 힐스테이트7차),3357,126.9257576,37.6163432,H,불광1동,126.9320869,37.61035877
은평구,백련산힐스테이트1차(응암7),재개발,78,백련산로2길 39 (응암동 백련산 힐스테이트 1차),3477,126.9252884,37.58956538,H,응암2동,126.9230743,37.59461474
은평구,백련산힐스테이트2차(응암8),재개발,255,백련산로2길 42 (응암동 백련산 힐스테이트 2차),3477,126.924251,37.58952805,H,응암2동,126.9230743,37.59461474
은평구,백련산힐스테이트3차(응암9),재개발,219,백련산로2길 46 (응암동 백련산 힐스테이트 3차),3477,126.924736,37.58900489,H,응암2동,126.9230743,37.59461474
은평구,구파발10-3단지(은평3-5임대),국민장기,712,북한산로 2 (진관동 은평뉴타운구파발),3300,126.916236,37.64224333,H,진관동,126.9210659,37.63496688
은평구,녹번센트레빌(응암3),재개발,350,백련산로 160 (응암동 녹번역센트레빌),3474,126.9260859,37.59831848,H,응암1동,126.9267869,37.60069699
은평구,불광롯데캐슬(불광4),재개발,100,불광로 64 (불광동 불광 롯데캐슬),3364,126.9324706,37.61313205,H,불광1동,126.9320869,37.61035877
은평구,갈현 공공기숙사(희망하우징),기타임대,41,통일로 943 (갈현동),3314,126.9194498,37.62713433,H,갈현1동,126.9167417,37.6236223
은평구,기자촌11단지(은평3-12임대),장기전세,426,연서로46길 7 (진관동),3308,126.9326829,37.63396525,H,진관동,126.9210659,37.63496688
은평구,북한산푸르지오(녹번1-3),재개발,1230,통일로 660 (녹번동 북한산푸르지오아파트),3370,126.9360493,37.60590145,H,녹번동,126.92992,37.60221616
은평구,산새마을 두레주택,기타임대,5,가좌로11나길 23(신사동 은평구 산새마을 두레주택),3439,126.9053189,37.59624587,H,신사2동,126.9082235,37.59023973
은평구,힐스테이트백련산4차,재건축,963,백련산로 37(응암동 힐스테이트백련산4차아파트) ,3469,126.9222745,37.58941333,H,응암2동,126.9230743,37.59461474
은평구,힐스테이트(녹번제1-1구역),재개발행복(리츠2호),952,은평구 통일로610(녹번동21-269),3373,126.9359478,37.60198245,H,녹번동,126.92992,37.60221616
은평구,래미안베라힐즈아파트(녹번1-2구역),재개발행복(리츠2호),1305,은평구 통일로 630(녹번동 21-134),3372,126.9359558,37.60284497,H,녹번동,126.92992,37.60221616
은평구,은뜨락(서울리츠1호),행복(리츠1호),350,은평구 통일로 972(진관동 235-28),3311,126.9199312,37.63013936,H,진관동,126.9210659,37.63496688
은평구,응암역효성해링턴플레이스(신사19),행복(재건축),380,은평구 가좌로 334(신사동 372),3437,126.9087701,37.5981159,H,신사1동,126.9117699,37.59779274
은평구,이룸채(은평준주거2),행복(리츠1호),630,은평구 통일로1045(진광동 48),3312,126.9164471,37.63582216,H,진관동,126.9210659,37.63496688
은평구,백련산 SK VIEW 아이파크아파트(응암10구역),재개발행복(리츠2호),1305,은평구 응암로30길 16(응암동 417-5),3346,126.9193946,37.59522857,H,응암2동,126.9230743,37.59461474
은평구,백련산파크자이,행복(재건축),678,은평구 백련산로67(응암동626-53),3468,126.9216198,37.59279721,H,응암2동,126.9230743,37.59461474
의정부시,상계장암1단지(수락산리버시티1단지),국민장기,680,누원로 51 (장암동 수락리버시티1단지),11727,127.0522646,37.69055657,H,장암동,127.0542709,37.72640488
의정부시,상계장암2단지(수락산리버시티2단지),국민장기,473,누원로 52 (장암동 수락리버시티2단지),11727,127.0536266,37.69071282,H,장암동,127.0542709,37.72640488
종로구,무악현대(무악1),재개발,550,통일로 246-11 (무악동 무악현대아파트),3025,126.9591269,37.57509668,H,무악동,126.9582457,37.57598547
종로구,경희궁자이(돈의문1구역),재개발행복(리츠2호),496,송월길 130(행촌동 경희궁자이 1단지),3166,126.9644965,37.5722356,H,교남동,126.9645751,37.5684336
종로구,종로구 충신동 연극인 두레주택 6호점,기타임대,4,종로구?충신4길?28-3(충신동 1-198),3098,127.0079932,37.57535874,H,종로5.6가동,127.0050713,37.57203198
종로구,종로구 충신동 연극인 두레주택 4호점,기타임대,4,종로구?충신4길?31-24(충신동 1-136),3098,127.0081951,37.57616935,H,종로5.6가동,127.0050713,37.57203198
종로구,종로구 충신동 연극인 두레주택 2호점,기타임대,6,종로구 충신4길 18(충신동 1-232),3098,127.0078042,37.5756914,H,종로5.6가동,127.0050713,37.57203198
종로구,종로구 충신동 연극인 두레주택 1호점,기타임대,5,종로구 충신길 80-4(충신동 1-66),3098,127.0070304,37.57629016,H,종로5.6가동,127.0050713,37.57203198
종로구,종로구 충신동 연극인 두레주택 5호점,기타임대,4,종로구 충신4길 31-22(충신동 1-139),3098,127.0081651,37.57607033,H,종로5.6가동,127.0050713,37.57203198
종로구,종로구 충신동 연극인 두레주택 3호점,기타임대,3,종로구 충신길 80-4(충신동 1-239),3098,127.0070304,37.57629016,H,종로5.6가동,127.0050713,37.57203198
중구,약수하이츠동아(신당4),재개발,684,동호로10길 30 (신당동 약수하이츠),4593,127.0163114,37.55530792,H,청구동,127.0147174,37.55703138
중구,신당삼성(신당5),재개발,440,청구로1길 23 (신당동 삼성아파트),4588,127.0184475,37.55853588,H,청구동,127.0147174,37.55703138
중구,하왕한진그랑빌(하왕1-2),재개발,116,왕십리로39길 30 (신당동 한진그랑빌아파트),4580,127.0257107,37.56372841,H,신당5동,127.021877,37.56513204
중구,남산타운(신당3),재개발,2034,다산로 32 (신당동 남산타운),4595,127.0056772,37.54716677,H,약수동,127.0090037,37.55243326
중구,중림삼성(충정삼성),재개발,355,중림로4길 41 (중림동 삼성사이버빌리지),4502,126.9648438,37.55705256,H,중림동,126.9661776,37.55916822
중구,황학롯데캐슬(황학),재개발,336,청계천로 400 (황학동 롯데캐슬베네치아),4572,127.0214639,37.57081055,H,황학동,127.0214113,37.56748552
중구,래미안신당하이베르(신당6),재개발,161,퇴계로90길 74 (신당동 래미안신당하이베르아파트),4582,127.0209858,37.56103798,H,동화동,127.0194353,37.55999678
중구,청구e-편한세상(신당7),재개발,158,청구로 64 (신당동 청구 e편한세상),4587,127.015451,37.55996016,H,동화동,127.0194353,37.55999678
중구,만리동예술인협동조합,기타임대,29,만리재로27길 69 (만리동2가),4500,126.9620879,37.55419456,H,중림동,126.9661776,37.55916822
중구,서울역센트럴자이(만리2구역),재개발행복(리츠2호),1341,만리재로 175,4500,126.9644582,37.55478004,H,중림동,126.9661776,37.55916822
중랑구,면목,영구임대,905,용마산로 228 (면목동 도시개발아파트),2257,127.0883012,37.57416749,H,면목4동,127.0856263,37.5746896
중랑구,신내12,영구임대,1000,봉화산로 153 (상봉동 신내12단지신내아파트),2044,127.0916098,37.60581862,H,상봉1동,127.0872134,37.59984775
중랑구,신내10,영구공공,1432,신내로 115 (신내동 신내10단지아파트),2043,127.0949042,37.60929753,H,신내2동,127.0941789,37.60624664
중랑구,신내9,공공임대,335,신내로 127 (신내동 신내9단지신내아파트),2026,127.0956519,37.61086744,H,신내2동,127.0941789,37.60624664
중랑구,청광플러스원,재건축,109,동일로136길 15 (중화동 청광플러스원),2050,127.0801934,37.60257453,H,중화1동,127.080674,37.60117145
중랑구,묵동월드메르디앙,재건축,141,중랑천로 316 (묵동 묵동월드메르디앙아파트),2004,127.0733387,37.6132804,H,묵2동,127.0760215,37.6096042
중랑구,신내데시앙,국민장기,1326,용마산로 669 (신내동 신내데시앙아파트),2053,127.0989769,37.609769,H,신내1동,127.0993653,37.60587478
중랑구,묵동리본타워(묵동시프트),장기전세,86,신내로 277 (묵동 묵동리본타워),2021,127.0862311,37.61903369,H,묵1동,127.0784844,37.61241368
중랑구,신내3-2(신내데시앙포레),국민장기,1896,신내역로 165 (신내동 신내우디안2단지),2055,127.1097561,37.61655923,H,신내1동,127.0993653,37.60587478
중랑구,현대프레미어스엠코(상봉8),재개발,497,망우로 353 (상봉동 상봉 프레미어스 엠코),2087,127.0916241,37.59833282,H,상봉1동,127.0872134,37.59984775
중랑구,신내3-1(신내우디안1단지),국민장기,1402,신내역로1길 85 (신내동 신내우디안1단지),2055,127.1062937,37.61680909,H,신내1동,127.0993653,37.60587478
중랑구,면목2코오롱하늘채,재건축,265,용마산로 210 (면목동 용마산 하늘채),2256,127.0870742,37.57185581,H,면목4동,127.0856263,37.5746896
중랑구,신내 의료안심주택,기타임대,222,신내로16길 33 (신내동 신내동 의료안심주택),2053,127.097663,37.6141744,H,신내1동,127.0993653,37.60587478
중랑구,우디안3(행복주택),행복(공사 건설형),50,신내역로1길 142(신내동 우디안3단지),2263,127.110353,37.6176622,H,신내1동,127.0993653,37.60587478
중랑구,e편한세상화랑대,재건축,719,숙선옹주로 45(묵동 e-편한세상화랑대),2030,127.0827355,37.61562144,H,묵1동,127.0784844,37.61241368
중랑구,우디안 4단지(신내3지구 4단지),행복(공사 건설형),289,중랑구 신내역로 160(신내동 신내3),2263,127.111457,37.61675513,H,신내1동,127.0993653,37.60587478
중랑구,신내 글로리움(신내동 640),행복(공사 건설형),229,중랑구 신내로 208(신내동 640),2052,127.0931176,37.61700015,H,신내1동,127.0993653,37.60587478
