,전철역코드,전철역명,전철명명(영문),호선,외부코드,검색키워드,주소,위도,경도,환승역,H/B,행정동,행정동_경도,행정동_위도
0,2622,망원역,Mangwon,6호선,621,망원역 6호선,서울 마포구 월드컵로 지하 77,37.5560572923314,126.910033925408,0,H,망원1동,126.90560418807725,37.55559621744154
1,2623,합정역,Hapjeong,6호선,622,합정역 6호선,서울 마포구 양화로 지하 45,37.5491226824276,126.913544566078,1,H,합정동,126.91215018641681,37.55170535552962
2,2624,상수역,Sangsu,6호선,623,상수역 6호선,서울 마포구 독막로 지하 85,37.547771666585604,126.92240985790801,0,H,서강동,126.9320305511775,37.54774687230983
3,2625,광흥창역,Gwangheungchang,6호선,624,광흥창역 6호선,서울 마포구 독막로 지하 165,37.5474860706906,126.931939240491,0,H,서강동,126.9320305511775,37.54774687230983
4,2626,대흥역,Daeheung,6호선,625,대흥역 6호선,서울 마포구 대흥로 지하 85,37.547668354472606,126.94246525170901,0,H,대흥동,126.94341748088685,37.54994771023627
5,2633,버티고개역,Beotigogae,6호선,632,버티고개역 6호선,서울 중구 다산로 지하 38,37.5479949973795,127.006885234253,0,H,다산동,127.0083022723385,37.55431820242067
6,2634,약수역,Yaksu,6호선,633,약수역 6호선,서울 중구 다산로 지하 115,37.5538914380831,127.010120543543,1,H,다산동,127.0083022723385,37.55431820242067
7,2635,청구역,Cheonggu,6호선,634,청구역 6호선,서울 중구 청구로 지하 77,37.5602939125022,127.013806006802,1,H,신당동,127.01450559046833,37.56211663517015
8,2636,신당역,Sindang,6호선,635,신당역 6호선,서울 중구 다산로 지하 260,37.566273888412105,127.016153533586,1,H,신당동,127.01450559046833,37.56211663517015
9,2727,군자역,Gunja,7호선,725,군자역 7호선,서울 광진구 천호대로 지하 550,37.5573631939521,127.079017279019,1,H,중곡1동,127.0800825285375,37.56067400014511
10,2732,강남구청역,Gangnam-gu Office,7호선,730,강남구청역 7호선,서울 강남구 학동로 지하 346,37.5171892352971,127.04130142966001,1,H,삼성2동,127.04607058643163,37.511266884811576
11,2733,학동역,Hak-dong,7호선,731,학동역 7호선,서울 강남구 학동로 지하 180,37.514206429460394,127.031463762217,0,H,논현2동,127.03735990690524,37.51739318345911
12,2535,종로3가역,Jongno 3(sam)-ga,5호선,534,종로3가역 5호선,서울 종로구 돈화문로11길 지하 26,37.5725695604894,126.99006167065001,1,H,종로1.2.3.4가동,126.99028726084354,37.574435539666744
13,2555,둔촌동역,Dunchon-dong,5호선,P549,둔촌동역 5호선,서울 강동구 양재대로 지하 1369,37.528135539246996,127.13637526264999,0,H,성내3동,127.13289932744046,37.526056837230755
14,2556,올림픽공원역,Olympic Park,5호선,P550,올림픽공원역 5호선,서울 송파구 양재대로 지하 1233,37.516087649278205,127.13060014082701,1,H,오륜동,127.13430567724342,37.515416211063034
15,2611,응암역,Eungam,6호선,610,응암역 6호선,서울 은평구 증산로 지하 477,37.5987423282207,126.915512801302,0,H,신사1동,126.9117699058142,37.59779273832438
16,2612,역촌역,Yeokchon,6호선,611,역촌역 6호선,서울 은평구 서오릉로 지하 63,37.606039053443496,126.922967946327,0,H,녹번동,126.92991998280014,37.60221616097081
17,2613,불광역,Bulgwang,6호선,612,불광역 6호선,서울 은평구 통일로 지하 723-1,37.6102072578868,126.92998576213002,1,H,대조동,126.9208251110824,37.61418996453204
18,2614,독바위역,Dokbawi,6호선,613,독바위역 6호선,서울 은평구 불광로 지하 129-1,37.6183988849915,126.93281013847601,0,H,불광1동,126.9320868678149,37.61035877069879
19,2615,연신내역,Yeonsinnae,6호선,614,연신내역 6호선,서울 은평구 통일로 지하 849,37.618962003178,126.921162124977,1,H,갈현1동,126.91674168150115,37.62362229730654
20,2616,구산역,Gusan,6호선,615,구산역 6호선,서울 은평구 연서로 지하 137-1,37.6112122196295,126.917182386796,0,H,구산동,126.91037618652634,37.61175703033078
21,2617,새절역,Saejeol,6호선,616,새절역 6호선,서울 은평구 증산로 지하 400,37.591827054401705,126.913911983591,0,H,신사2동,126.9082235268078,37.59023972566066
22,2618,증산역,Jeungsan,6호선,617,증산역 6호선,서울 은평구 증산로 지하 306,37.5841954778004,126.91005758788602,0,H,증산동,126.90703977276561,37.58430306092341
23,2619,디지털미디어시티역,Digital Media City,6호선,618,디지털미디어시티역 6호선,서울 은평구 수색로 지하 175,37.577161435266106,126.901928562926,1,H,증산동,126.90703977276561,37.58430306092341
24,2620,월드컵경기장역,World Cup Stadium,6호선,619,월드컵경기장역 6호선,서울 마포구 월드컵로 지하 240,37.569942569034,126.899033325814,0,H,성산2동,126.90899709145033,37.56865612002697
25,2621,마포구청역,Mapo-gu Office,6호선,620,마포구청역 6호선,서울 마포구 월드컵로 지하 190,37.5634263131969,126.903356973848,0,H,성산2동,126.90899709145033,37.56865612002697
26,2734,논현역,Nonhyeon,7호선,732,논현역 7호선,서울 강남구 학동로 지하 102,37.5111988300765,127.02165786166901,0,H,논현1동,127.02855272024502,37.51149226338117
27,2735,반포역,Banpo,7호선,733,반포역 7호선,서울 서초구 신반포로 지하 241,37.5081263886404,127.011497032246,0,H,반포1동,127.01337714858089,37.50509061438031
28,2736,고속터미널역,Express Bus Terminal,7호선,734,고속터미널역 7호선,서울 서초구 신반포로 지하 188,37.504647182738,127.004442096367,1,H,반포4동,127.00030759341732,37.49747606930116
29,0332,양재역,Yangjae,3호선,342,양재역 3호선,서울 서초구 남부순환로 지하 2585,37.483934732890795,127.03454419343599,1,H,양재1동,127.02672880394384,37.47163933132787
30,0333,매봉역,Maebong,3호선,343,매봉역 3호선,서울 강남구 남부순환로 지하 2744,37.4869611285839,127.04661456092501,0,H,도곡1동,127.03896912921999,37.48830459754871
31,0334,도곡역,Dogok,3호선,344,도곡역 3호선,서울 강남구 남부순환로 지하 2814,37.490864771718705,127.05532337372,1,H,도곡2동,127.04638382177308,37.483728401661516
32,0335,대치역,Daechi,3호선,345,대치역 3호선,서울 강남구 남부순환로 지하 2952,37.4945627553067,127.06343019344901,0,H,대치2동,127.06416444805477,37.50224839237725
33,0336,학여울역,Hangnyeoul,3호선,346,학여울역 3호선,서울 강남구 남부순환로 지하 3104,37.4967171864138,127.071718971861,0,H,대치2동,127.06416444805477,37.50224839237725
34,0337,대청역,Daecheong,3호선,347,대청역 3호선,서울 강남구 일원로 지하 2,37.493721859778795,127.079493645766,0,H,일원2동,127.07369959446872,37.49217318132317
35,0338,일원역,Irwon,3호선,348,일원역 3호선,서울 강남구 일원로 지하 121,37.484073584028394,127.084451750048,0,H,일원본동,127.08649883003277,37.4833130035479
36,0339,수서역,Suseo,3호선,349,수서역 3호선,서울 강남구 광평로 지하 270,37.487388993350294,127.10185919101801,1,H,수서동,127.10500397212131,37.48888785942371
37,0434,남태령역,Namtaeryeong,4호선,434,남태령역 4호선,서울 서초구 과천대로 지하 816,37.4648575576518,126.988656544337,0,H,방배2동,126.9855736446241,37.47982624701295
38,2511,방화역,Banghwa,5호선,510,방화역 5호선,서울 강서구 금낭화로 지하 132,37.577003107946894,126.81262993382,0,H,방화3동,126.81355003364565,37.578743210924834
39,2512,개화산역,Gaehwasan,5호선,511,개화산역 5호선,서울 강서구 양천로 22,37.572270024754,126.806001672732,0,H,방화2동,126.80673880485905,37.56671300076564
40,2513,김포공항역,Gimpo Intl. Airport,5호선,512,김포공항역 5호선,서울 강서구 하늘길 지하 77,37.562144131501,126.801570320177,1,H,공항동,126.79483817099285,37.55591341272746
41,2514,송정역,Songjeong,5호선,513,송정역 5호선,서울 강서구 공항대로 지하 33,37.561477548313604,126.811055407613,0,H,공항동,126.79483817099285,37.55591341272746
42,2515,마곡역,Magok,5호선,514,마곡역 5호선,서울 강서구 공항대로 지하 163,37.5601984535897,126.825547992125,0,H,공항동,126.79483817099285,37.55591341272746
43,2531,애오개역,Aeogae,5호선,530,애오개역 5호선,서울 마포구 마포대로 지하 210,37.5533624029594,126.95661326016001,0,H,아현동,126.95590370163207,37.554483251679514
44,2533,서대문역,Seodaemun,5호선,532,서대문역 5호선,서울 종로구 통일로 지하 126,37.565856271913,126.966637398787,0,H,충현동,126.95472045972106,37.564819040623895
45,2534,광화문역,Gwanghwamun,5호선,533,광화문역 5호선,서울 종로구 세종대로 지하 172,37.5716228232824,126.97678799256501,0,H,사직동,126.96884605608865,37.57618696588561
46,2737,내방역,Naebang,7호선,735,내방역 7호선,서울 서초구 서초대로 지하 103,37.487533528504,126.99319030950899,0,H,방배1동,126.99450958540659,37.48336976730155
47,0214,강변역,Gangbyeon,2호선,214,강변역 2호선,서울 광진구 강변역로 53,37.5351692767888,127.094664569096,0,H,구의3동,127.09196131077688,37.53798181270719
48,0215,잠실나루역,Jamsillaru,2호선,215,잠실나루역 2호선,서울 송파구 오금로 20,37.520686731808794,127.10381108944401,0,H,잠실6동,127.1006605179514,37.51812745749349
49,0216,잠실역,Jamsil,2호선,216,잠실역 2호선,서울 송파구 올림픽로 지하 265,37.513859279255,127.101857941447,1,H,잠실6동,127.1006605179514,37.51812745749349
50,0217,잠실새내역,Jamsilsaenae,2호선,217,잠실새내역 2호선,서울 송파구 올림픽로 지하 140,37.5115672093323,127.08637386720699,0,H,잠실3동,127.09438326683343,37.5133248862588
51,0322,동대입구역,Dongguk Univ.,3호선,332,동대입구역 3호선,서울 중구 동호로 지하 256,37.559030224347,127.005460196954,0,H,장충동,127.00785943700775,37.56191183742461
52,0324,금호역,Geumho,3호선,334,금호역 3호선,서울 성동구 동호로 지하 104,37.5481125196986,127.015893753726,0,H,금호4가동,127.02240132684157,37.54719127436341
53,0325,옥수역,Oksu,3호선,335,옥수역 3호선,서울 성동구 동호로 21,37.5410468905674,127.01832999157601,1,H,옥수동,127.0134338126595,37.54358863837599
54,0326,압구정역,Apgujeong,3호선,336,압구정역 3호선,서울 강남구 압구정로 지하 172,37.5264308236177,127.028480919224,0,H,신사동,127.02277448907014,37.52398502986103
55,0327,신사역,Sinsa,3호선,337,신사역 3호선,서울 강남구 도산대로 지하 102,37.5164324582415,127.020326886309,0,H,논현1동,127.02855272024502,37.51149226338117
56,0328,잠원역,Jamwon,3호선,338,잠원역 3호선,서울 서초구 잠원로4길 지하 46,37.512799114810704,127.01122017966001,0,H,잠원동,127.01410282023416,37.51491868802903
57,0329,고속터미널역,Express Bus Terminal,3호선,339,고속터미널역 3호선,서울 서초구 신반포로 지하 188,37.504647182738,127.004442096367,1,H,반포4동,127.00030759341732,37.49747606930116
58,0330,교대역,Seoul Nat`l Univ. of Education,3호선,340,교대역 3호선,서울 서초구 서초대로 지하 294,37.4935774661715,127.014155572616,1,H,서초1동,127.01957096253298,37.49007898260848
59,0331,남부터미널역,Nambu Bus Terminal,3호선,341,남부터미널역 3호선,서울 서초구 서초중앙로 지하 31,37.485140166040004,127.016207055102,0,H,서초1동,127.01957096253298,37.49007898260848
60,2738,이수역,Isu,7호선,736,이수역 7호선,서울 동작구 사당로 지하 310,37.485015143952,126.98102181208901,0,H,사당2동,126.97925342785726,37.48875249863833
61,2811,암사역,Amsa,8호선,810,암사역 8호선,서울 강동구 올림픽로 지하 776,37.5501403417224,127.127540246626,0,H,천호2동,127.1254393146216,37.54344348896423
62,2812,천호역,Cheonho,8호선,811,천호역 8호선,서울 강동구 천호대로 지하 997,37.5385789820645,127.123742434482,1,H,천호2동,127.1254393146216,37.54344348896423
63,2813,강동구청역,Gangdong-gu Office,8호선,812,강동구청역 8호선,서울 강동구 올림픽로 지하 550,37.5306740877124,127.12057605164,0,H,풍납2동,127.11682116834518,37.528776839455645
64,4132,석촌고분역,Seokchon Gobun,9호선,932,석촌고분역 9호선,서울 송파구 백제고분로 지하 274,37.5024703189666,127.096703734242,0,H,삼전동,127.09251970719157,37.50272333861296
65,0218,종합운동장역,Sports Complex,2호선,218,종합운동장역 2호선,서울 송파구 올림픽로 지하 23,37.510969274899296,127.073356018706,1,H,잠실7동,127.07696864354489,37.508670315882846
66,0219,삼성역,Samseong,2호선,219,삼성역 2호선,서울 강남구 테헤란로 지하 538,37.5088619974404,127.063073009788,0,H,삼성1동,127.06252794171509,37.51439120945542
67,0220,선릉역,Seolleung,2호선,220,선릉역 2호선,서울 강남구 테헤란로 지하 340,37.5045028775835,127.048942471228,1,H,역삼2동,127.0468346777432,37.49596751103195
68,0221,역삼역,Yeoksam,2호선,221,역삼역 2호선,서울 강남구 테헤란로 지하 156,37.500716269359295,127.036618203089,0,H,역삼1동,127.03320108651666,37.49542431718493
69,0222,강남역,Gangnam,2호선,222,강남역 2호선,서울 강남구 강남대로 지하 396,37.4981646510326,127.028307900881,1,H,역삼1동,127.03320108651666,37.49542431718493
70,0223,교대역,Seoul Nat`l Univ. of Education,2호선,223,교대역 2호선,서울 서초구 서초대로 지하 294,37.4935774661715,127.014155572616,1,H,서초1동,127.01957096253298,37.49007898260848
71,0317,경복궁역,Gyeongbokgung,3호선,327,경복궁역 3호선,서울 종로구 사직로 지하 130,37.57586130277021,126.973062710191,0,H,사직동,126.96884605608865,37.57618696588561
72,0318,안국역,Anguk,3호선,328,안국역 3호선,서울 종로구 율곡로 지하 62,37.5767203705556,126.985823042976,0,H,가회동,126.98477996418791,37.58007157843739
73,0319,종로3가역,Jongno 3(sam)-ga,3호선,329,종로3가역 3호선,서울 종로구 돈화문로 지하 30,37.571140278593795,126.991994361467,1,H,종로1.2.3.4가동,126.99028726084354,37.574435539666744
74,0320,을지로3가역,Euljiro 3(sam)-ga,3호선,330,을지로3가역 3호선,서울 중구 을지로 지하 129,37.5662750350156,126.992650024369,1,H,을지로동,126.99135225472774,37.566701478579624
75,2627,공덕역,Gongdeok,6호선,626,공덕역 6호선,서울 마포구 백범로 지하 200,37.543526917067,126.951947569181,1,H,공덕동,126.96003451324378,37.55017434738842
76,2628,효창공원앞역,Hyochang park,6호선,627,효창공원앞역 6호선,서울 용산구 백범로 지하 287,37.539334042392994,126.961318543969,1,H,효창동,126.96189891954826,37.54237952039099
77,4133,석촌역,Seokchon(Hansol Hospital),9호선,933,석촌역 9호선,서울 송파구 백제고분로 지하 368,37.5051304640171,127.10692810884399,1,H,석촌동,127.10366738403702,37.50356463067748
78,4134,송파나루역,Songpanaru,9호선,934,송파나루역 9호선,서울 송파구 백제고분로 지하 446,37.510631698592704,127.11239386699499,0,H,방이2동,127.11444178436398,37.51457576815779
79,4135,한성백제역,Hanseong Baekje,9호선,935,한성백제역 9호선,서울 송파구 위례성대로 지하 29,37.5164647953901,127.116303251765,0,H,오륜동,127.13430567724342,37.515416211063034
80,4136,올림픽공원역,Olympic Park,9호선,936,올림픽공원역 9호선,서울 송파구 양재대로 지하 1231,37.5168868476651,127.130917803204,1,H,오륜동,127.13430567724342,37.515416211063034
81,4137,둔촌오륜역,Dunchon Oryun,9호선,937,둔촌오륜역 9호선,서울 강동구 강동대로 지하 303,37.5194242486054,127.138427332482,0,H,둔촌1동,127.1367545921075,37.52348638333312
82,0225,방배역,Bangbae,2호선,225,방배역 2호선,서울 서초구 방배로 지하 80,37.4814364876589,126.99769489932699,0,H,방배3동,126.9999954777151,37.478439573373386
83,0226,사당역,Sadang,2호선,226,사당역 2호선,서울 동작구 남부순환로 지하 2089,37.476522834761894,126.981408909449,1,H,남현동,126.97784646962457,37.47456675887942
84,0227,낙성대역,Nakseongdae,2호선,227,낙성대역 2호선,서울 관악구 남부순환로 지하 1928,37.4770651843603,126.96340995915199,0,H,인헌동,126.9653201371887,37.47510795639273
85,0228,서울대입구역,Seoul Nat`l Univ.,2호선,228,서울대입구역 2호선,서울 관악구 남부순환로 지하 1822,37.481152663184396,126.952645104944,0,H,청룡동,126.94167558443198,37.47909552918944
86,0229,봉천역,Bongcheon,2호선,229,봉천역 2호선,서울 관악구 남부순환로 지하 1721,37.4825562153548,126.941495272047,0,H,은천동,126.94250287827985,37.485377767480706
87,0230,신림역,Sillim,2호선,230,신림역 2호선,서울 관악구 남부순환로 지하 1614,37.4842176141092,126.92980331103,0,H,서원동,126.93137764212042,37.47976395192632
88,0231,신대방역,Sindaebang,2호선,231,신대방역 2호선,서울 동작구 대림로 2,37.4875759745635,126.913175585996,0,H,신대방1동,126.91004821118891,37.48894713093705
89,0232,구로디지털단지역,Guro Digital Complex,2호선,232,구로디지털단지역 2호선,서울 구로구 도림천로 477,37.485314923786504,126.901494378412,0,H,구로3동,126.89033063276314,37.487348304030654
90,0234,신도림역,Sindorim,2호선,234,신도림역 2호선,서울 구로구 새말로 지하 117-21,37.508770144978705,126.891080501385,1,H,신도림동,126.88061022867365,37.507780905043674
91,0235,문래역,Mullae,2호선,235,문래역 2호선,서울 영등포구 당산로 지하 28,37.5179214637526,126.89476306055599,0,H,문래동,126.89949467431545,37.517118466214946
92,0236,영등포구청역,Yeongdeungpo-gu Office,2호선,236,영등포구청역 2호선,서울 영등포구 당산로 지하 121,37.525699661480395,126.896626898379,1,H,당산1동,126.8973844956197,37.52497339384462
93,2629,삼각지역,Samgakji,6호선,628,삼각지역 6호선,서울 용산구 한강대로 지하 185,37.5356450533976,126.974080538316,1,H,한강로동,126.96910588830355,37.52814221077219
94,2630,녹사평역,Noksapyeong,6호선,629,녹사평역 6호선,서울 용산구 녹사평대로 지하 195,37.5348314193581,126.987028473368,0,H,이태원2동,126.99018285504647,37.54190953121075
95,2631,이태원역,Itaewon,6호선,630,이태원역 6호선,서울 용산구 이태원로 지하 177,37.534483277545,126.99372165550601,0,H,이태원1동,126.99509883211971,37.5325069970379
96,2632,한강진역,Hangangjin,6호선,631,한강진역 6호선,서울 용산구 이태원로 지하 287,37.5402951544226,127.00174828764901,0,H,한남동,127.00055213243787,37.53462985578658
97,0244,용답역,Yongdap,2호선,211-1,용답역 2호선,서울 성동구 용답길 86,37.56200490526621,127.050729309179,0,H,용답동,127.05557905276898,37.56407582442792
98,0249,신정네거리역,Sinjeongnegeori,2호선,234-3,신정네거리역 2호선,서울 양천구 중앙로 지하 261,37.51979752667871,126.85299164505899,0,H,신정3동,126.85479986821939,37.515122207950974
99,0310,구파발역,Gupabal,3호선,320,구파발역 3호선,서울 은평구 진관2로 지하 15-25,37.636841788931605,126.91874542641199,0,H,진관동,126.92106591288902,37.63496688251137
100,0311,연신내역,Yeonsinnae,3호선,321,연신내역 3호선,서울 은평구 통일로 지하 849,37.618962003178,126.921162124977,1,H,갈현1동,126.91674168150115,37.62362229730654
101,0312,불광역,Bulgwang,3호선,322,불광역 3호선,서울 은평구 통일로 지하 723-1,37.6102072578868,126.92998576213002,1,H,대조동,126.9208251110824,37.61418996453204
102,0313,녹번역,Nokbeon,3호선,323,녹번역 3호선,서울 은평구 통일로 지하 602-1,37.600742180986096,126.936019442532,0,H,녹번동,126.92991998280014,37.60221616097081
103,0314,홍제역,Hongje,3호선,324,홍제역 3호선,서울 서대문구 통일로 지하 440-1,37.5887103667691,126.944242309924,0,H,홍제3동,126.94974338256897,37.59378217899066
104,0315,무악재역,Muakjae,3호선,325,무악재역 3호선,서울 서대문구 통일로 지하 361,37.58238414724671,126.950322097494,0,H,홍제2동,126.94939526673107,37.58615242768815
105,0316,독립문역,Dongnimmun,3호선,326,독립문역 3호선,서울 서대문구 통일로 지하 247,37.5744103589329,126.95775027904699,0,H,천연동,126.95840436592846,37.56748013604264
106,2637,동묘앞역,Dongmyo,6호선,636,동묘앞역 6호선,서울 종로구 지봉로 지하 24,37.572200520877296,127.01567813381901,1,H,창신1동,127.0163772681666,37.570737119685845
107,2638,창신역,Changsin,6호선,637,창신역 6호선,서울 종로구 지봉로 지하 112,37.5800168892429,127.015211194258,0,H,창신3동,127.01503392981843,37.57788038478704
108,2724,사가정역,Sagajeong,7호선,722,사가정역 7호선,서울 중랑구 사가정로 지하 393,37.5807945533834,127.088439058456,0,H,면목제3.8동,127.08809485405695,37.58296971855211
109,2725,용마산역,Yongmasan,7호선,723,용마산역 7호선,서울 중랑구 용마산로 지하 227,37.5740302107904,127.087038114766,0,H,면목4동,127.085626342164,37.57468959990683
110,2726,중곡역,Junggok,7호선,724,중곡역 7호선,서울 광진구 능동로 지하 417,37.5655258842084,127.084072412789,0,H,중곡3동,127.08020894219338,37.56879369024624
111,2728,어린이대공원역,Children`s  Grand Park,7호선,726,어린이대공원역 7호선,서울 광진구 능동로 지하 210,37.547871203305,127.074549925093,0,H,군자동,127.07590279558775,37.555144639227805
112,0202,을지로입구역,Euljiro 1(il)-ga,2호선,202,을지로입구역 2호선,서울 중구 을지로 지하 42,37.5660509513873,126.98237290178699,0,H,명동,126.98581171546633,37.56004798513031
113,0203,을지로3가역,Euljiro 3(sam)-ga,2호선,203,을지로3가역 2호선,서울 중구 을지로 지하 106,37.56626594615,126.990308356253,1,H,을지로동,126.99135225472774,37.566701478579624
114,0204,을지로4가역,Euljiro 4(sa)-ga,2호선,204,을지로4가역 2호선,서울 중구 을지로 지하 178,37.56663699415721,126.997852780281,1,H,을지로동,126.99135225472774,37.566701478579624
115,0205,동대문역사문화공원역,Dongdaemun History  Culture Park,2호선,205,동대문역사문화공원역 2호선,서울 중구 을지로 지하 279,37.565589522977604,127.009131498424,1,H,광희동,127.00505266779864,37.56446721686456
116,0206,신당역,Sindang,2호선,206,신당역 2호선,서울 중구 퇴계로 지하 431-1,37.5656540317328,127.01954057448499,1,H,황학동,127.02141131718516,37.56748552210743
117,0209,한양대역,Hanyang Univ.,2호선,209,한양대역 2호선,서울 성동구 왕십리로 206,37.55557788354,127.043584493543,0,H,사근동,127.04532733171415,37.561499751575745
118,0210,뚝섬역,Ttukseom,2호선,210,뚝섬역 2호선,서울 성동구 아차산로 18,37.547188224409105,127.047365178682,0,H,성수1가2동,127.0500491728075,37.54776303571764
119,0211,성수역,Seongsu,2호선,211,성수역 2호선,서울 성동구 아차산로 100,37.5445023983984,127.05609047122299,0,H,성수2가3동,127.05525042193406,37.5482184239163
120,0212,건대입구역,Konkuk Univ.,2호선,212,건대입구역 2호선,서울 광진구 아차산로 243,37.540418887217605,127.06917328155399,1,H,자양4동,127.06630523665609,37.53413911895597
121,0213,구의역,Guui,2호선,213,구의역 2호선,서울 광진구 아차산로 384-1,37.5371535596228,127.086179228767,0,H,자양2동,127.08441542586684,37.52884409210757
122,0237,당산역,Dangsan,2호선,237,당산역 2호선,서울 영등포구 당산로 229,37.534956866617996,126.90273071003,1,H,당산2동,126.89731736540782,37.53103166936052
123,0238,합정역,Hapjeong,2호선,238,합정역 2호선,서울 마포구 양화로 지하 55,37.550115206890794,126.914638180431,1,H,서교동,126.91459072347962,37.55510931339116
124,0239,홍대입구역,Hongik Univ.,2호선,239,홍대입구역 2호선,서울 마포구 양화로 지하 160,37.556890409371796,126.923674307594,1,H,서교동,126.91459072347962,37.55510931339116
125,0240,신촌역,Sinchon,2호선,240,신촌역 2호선,서울 마포구 신촌로 지하 90,37.555441786598394,126.936119192554,0,H,신촌동,126.93927688481546,37.56515088211023
126,0241,이대역,Ewha Womans Univ.,2호선,241,이대역 2호선,서울 마포구 신촌로 지하 180,37.5567980142044,126.945758201019,0,H,대흥동,126.94341748088685,37.54994771023627
127,0242,아현역,Ahyeon,2호선,242,아현역 2호선,서울 마포구 신촌로 지하 270,37.5573575723061,126.95603374504,0,H,아현동,126.95590370163207,37.554483251679514
128,0243,충정로역,Chungjeongno,2호선,243,충정로역 2호선,서울 서대문구 서소문로 지하 17,37.5598377952439,126.964474043785,1,H,충현동,126.95472045972106,37.564819040623895
129,2532,충정로역,Chungjeongno,5호선,531,충정로역 5호선,서울 서대문구 충정로 지하 28-1,37.5609934378336,126.96337325536501,1,H,충현동,126.95472045972106,37.564819040623895
130,2739,남성역,Namseong,7호선,737,남성역 7호선,서울 동작구 사당로 지하 218,37.4844433924857,126.97170609607099,0,H,사당4동,126.9716352675573,37.480984222755986
131,2740,숭실대입구역,Soongsil Univ.,7호선,738,숭실대입구역 7호선,서울 동작구 상도로 지하 378,37.495814330883604,126.95406024606702,0,H,상도1동,126.94974533151786,37.50323181885924
132,2741,상도역,Sangdo,7호선,739,상도역 7호선,서울 동작구 상도로 지하 272,37.5032080456431,126.947700373641,0,H,상도1동,126.94974533151786,37.50323181885924
133,2742,장승배기역,Jangseungbaegi,7호선,740,장승배기역 7호선,서울 동작구 상도로 지하 188,37.5046658024741,126.938744364462,0,H,상도2동,126.94231104264887,37.505466519492
134,2743,신대방삼거리역,Sindaebangsamgeori,7호선,741,신대방삼거리역 7호선,서울 동작구 상도로 지하 76,37.4997218266711,126.928222967016,0,H,대방동,126.92634350000763,37.50816426100698
135,2744,보라매역,Boramae,7호선,742,보라매역 7호선,서울 동작구 상도로 지하 2,37.499910050321,126.92048939030899,0,H,대방동,126.92634350000763,37.50816426100698
136,2745,신풍역,Sinpung,7호선,743,신풍역 7호선,서울 영등포구 신풍로 지하 27,37.500117203676204,126.909841656125,0,H,신길6동,126.90985472928638,37.499402265501345
137,2746,대림역,Daerim,7호선,744,대림역 7호선,서울 영등포구 도림로 지하 137,37.4927430722225,126.896611839343,1,H,대림3동,126.8980588061171,37.49830786419587
138,2747,남구로역,Namguro,7호선,745,남구로역 7호선,서울 구로구 도림로 지하 7,37.4861618372855,126.887341021559,0,H,구로3동,126.89033063276314,37.487348304030654
139,2748,가산디지털단지역,Gasan Digital Complex,7호선,746,가산디지털단지역 7호선,서울 금천구 벚꽃로 309,37.481595737544296,126.882559483336,1,H,가산동,126.89163476131107,37.47687618530204
140,2751,천왕역,Cheonwang,7호선,749,천왕역 7호선,서울 구로구 오리로 지하 1154,37.4868219430207,126.838713741162,0,H,오류2동,126.83950458361203,37.48881469609833
141,2752,온수역,Onsu,7호선,750,온수역 7호선,서울 구로구 경인로3길 지하 64,37.4921502838112,126.823380714316,1,H,수궁동,126.83147856339022,37.49390321679422
142,0340,가락시장역,Garak Market,3호선,350,가락시장역 3호선,서울 송파구 송파대로 지하 257,37.4927440321316,127.118485741487,1,H,가락1동,127.10729000914175,37.4997483408833
143,0341,경찰병원역,National Police Hospital,3호선,351,경찰병원역 3호선,서울 송파구 중대로 지하 149,37.4956031419934,127.124067847413,0,H,가락본동,127.12177224220831,37.49558967282977
144,0342,오금역,Ogeum,3호선,352,오금역 3호선,서울 송파구 오금로 지하 321,37.5022659793733,127.127879247544,1,H,오금동,127.12809944967847,37.50300005998476
145,0409,당고개역,Danggogae,4호선,409,당고개역 4호선,서울 노원구 상계로 305,37.6702926448965,127.07901115946699,0,H,상계3.4동,127.0832317470677,37.672913304688635
146,0410,상계역,Sanggye,4호선,410,상계역 4호선,서울 노원구 상계로 182,37.6609038887184,127.073575379339,0,H,상계5동,127.06940720490161,37.6629682202442
147,0411,노원역,Nowon,4호선,411,노원역 4호선,서울 노원구 상계로 69-1,37.6562677764281,127.063030448739,1,H,상계2동,127.06788803339256,37.65748032538832
148,0412,창동역,Chang-dong,4호선,412,창동역 4호선,서울 도봉구 마들로11길 77,37.6532174818989,127.047714954434,1,H,창5동,127.04358074482582,37.656298909711985
149,0413,쌍문역,Ssangmun,4호선,413,쌍문역 4호선,서울 도봉구 도봉로 지하 486-1,37.6488498649136,127.034880717215,0,H,창1동,127.04382993743857,37.648373773131134
150,0414,수유역,Suyu,4호선,414,수유역 4호선,서울 강북구 도봉로 지하 338,37.6377452337445,127.025356901379,0,H,수유3동,127.02315389441989,37.63871388508331
151,0415,미아역,Mia,4호선,415,미아역 4호선,서울 강북구 도봉로 지하 198,37.6264436445109,127.02610343441299,0,H,미아동,127.02706077667905,37.62708312940752
152,0416,미아사거리역,Miasamgeori,4호선,416,미아사거리역 4호선,서울 강북구 도봉로 지하 50,37.6132861094991,127.030098418544,0,H,송중동,127.0337938241709,37.61612898935126
153,0417,길음역,Gireum,4호선,417,길음역 4호선,서울 성북구 동소문로 지하 248,37.603183910563004,127.024823216768,0,H,길음1동,127.01950278200795,37.61039832392342
154,0418,성신여대입구역,Sungshin Women`s Univ.,4호선,418,성신여대입구역 4호선,서울 성북구 동소문로 지하 102,37.592717926134604,127.01647764974301,1,H,동선동,127.02042247154486,37.59399653771089
155,0419,한성대입구역,Hansung Univ.,4호선,419,한성대입구역 4호선,서울 성북구 삼선교로 지하 1,37.5883948842004,127.00595033341999,0,H,성북동,127.00327906111706,37.59105021324482
156,0420,혜화역,Hyehwa,4호선,420,혜화역 4호선,서울 종로구 대학로 지하 120,37.581803622318894,127.001978401429,0,H,이화동,127.00433805247364,37.57699468402387
157,0421,동대문역,Dongdaemun,4호선,421,동대문역 4호선,서울 종로구 율곡로 지하 308,37.5704117093421,127.009546610861,1,H,종로5.6가동,127.00507129056305,37.572031975843586
158,0422,동대문역사문화공원역,Dongdaemun History  Culture Park,4호선,422,동대문역사문화공원역 4호선,서울 중구 장충단로 지하 230,37.5650787698586,127.007550653481,1,H,광희동,127.00505266779864,37.56446721686456
159,2541,왕십리역,Wangsimni,5호선,540,왕십리역 5호선,서울 성동구 왕십리로 지하 300,37.561221741519105,127.036655378283,1,H,행당1동,127.03620337239582,37.558504384172046
160,0245,신답역,Sindap,2호선,211-2,신답역 2호선,서울 성동구 천호대로 232,37.56999105621829,127.04682020355601,0,H,용답동,127.05557905276898,37.56407582442792
161,2639,보문역,Bomun,6호선,638,보문역 6호선,서울 성북구 보문로 지하 116,37.585327723884795,127.01938698351499,1,H,보문동,127.02280976990156,37.580380297758296
162,2640,안암역,Anam,6호선,639,안암역 6호선,서울 성북구 고려대로 지하 89,37.5862804833256,127.02921303011101,0,H,안암동,127.02136222611746,37.585833380628706
163,2641,고려대역,Korea Univ.,6호선,640,고려대역 6호선,서울 성북구 종암로 지하 1,37.590649686622,127.03628494866899,0,H,제기동,127.03781841472248,37.583115463995185
164,2642,월곡역,Wolgok,6호선,641,월곡역 6호선,서울 성북구 월곡로 지하 107,37.601421052340896,127.04118476646799,0,H,월곡2동,127.04788645493356,37.60579156949435
165,2643,상월곡역,Sangwolgok,6호선,642,상월곡역 6호선,서울 성북구 화랑로 지하 157,37.6062641394281,127.048326622029,0,H,월곡2동,127.04788645493356,37.60579156949435
166,2644,돌곶이역,Dolgoji,6호선,643,돌곶이역 6호선,서울 성북구 화랑로 지하 243,37.610550696559,127.05642521765199,0,H,장위2동,127.05451864775776,37.61240555774102
167,2645,석계역,Seokgye,6호선,644,석계역 6호선,서울 노원구 화랑로 지하 347-1,37.615048084695204,127.066118430844,1,H,월계3동,127.0692594417589,37.621014877367806
168,2646,태릉입구역,Taereung,6호선,645,태릉입구역 6호선,서울 노원구 동일로 지하 992-1,37.6179056668897,127.07499539092699,1,H,공릉1동,127.07382131176637,37.62483590103203
169,2647,화랑대역,Hwarangdae,6호선,646,화랑대역 6호선,서울 노원구 화랑로 지하 510,37.619894388718706,127.083744624338,0,H,공릉2동,127.08329651641624,37.621308535361855
170,2648,봉화산역,Bonghwasan,6호선,647,봉화산역 6호선,서울 중랑구 신내로 지하 232,37.617653762443794,127.090758129505,0,H,신내2동,127.09417892132915,37.606246637447555
171,2721,중화역,Junghwa,7호선,719,중화역 7호선,서울 중랑구 동일로 지하 797,37.6015796992834,127.079469204905,0,H,중화2동,127.07617317673738,37.60282866296335
172,2722,상봉역,Sangbong,7호선,720,상봉역 7호선,서울 중랑구 망우로 297,37.596713784408706,127.08543676516399,1,H,상봉1동,127.08721335595949,37.599847752885864
173,2723,면목역,Myeonmok,7호선,721,면목역 7호선,서울 중랑구 면목로 지하 407,37.5883848968931,127.08756784153098,0,H,면목본동,127.08748853813313,37.587280519198316
174,2516,발산역,Balsan,5호선,515,발산역 5호선,서울 강서구 공항대로 지하 267,37.5590292668195,126.837310771961,0,H,가양1동,126.83492534942096,37.57188423770563
175,2517,우장산역,Ujangsan,5호선,516,우장산역 5호선,서울 강서구 강서로 지하 262,37.54900019538729,126.83640893178499,0,H,우장산동,126.84179449483894,37.54819744680285
176,2518,화곡역,Hwagok,5호선,517,화곡역 5호선,서울 강서구 화곡로 지하 168,37.5414336176977,126.84049645015301,0,H,화곡1동,126.8416013030719,37.53039704721021
177,2519,까치산역,Kkachisan,5호선,518,까치산역 5호선,서울 강서구 강서로 지하 54,37.531956084774606,126.846611592059,1,H,화곡8동,126.84836227238645,37.532633194908016
178,2520,신정역,Sinjeong,5호선,519,신정역 5호선,서울 양천구 오목로 지하 179,37.5252107928783,126.857290392028,0,H,신정4동,126.85869801145971,37.52336570218294
179,2521,목동역,Mok-dong,5호선,520,목동역 5호선,서울 양천구 오목로 지하 245,37.52619868083,126.864742584692,0,H,목1동,126.87113876950467,37.53035368195863
180,2522,오목교역,Omokgyo,5호선,521,오목교역 5호선,서울 양천구 오목로 지하 342,37.524450070380205,126.87535462625401,0,H,목1동,126.87113876950467,37.53035368195863
181,2523,양평역,Yangpyeong,5호선,522,양평역 5호선,서울 영등포구 양산로 지하 21,37.5255116853806,126.886865676125,0,H,양평1동,126.88824121987842,37.52367846502517
182,2524,영등포구청역,Yeongdeungpo-gu Office,5호선,523,영등포구청역 5호선,서울 영등포구 양산로 지하 116,37.524226606211705,126.895289064995,1,H,당산1동,126.8973844956197,37.52497339384462
183,2525,영등포시장역,Yeongdeungpo Market,5호선,524,영등포시장역 5호선,서울 영등포구 양산로 지하 200,37.5227345248969,126.904959169819,0,H,영등포동,126.90759003155141,37.52379249719461
184,2526,신길역,Singil,5호선,525,신길역 5호선,서울 영등포구 경인로114가길 지하 9,37.5176677017212,126.914336937521,1,H,영등포동,126.90759003155141,37.52379249719461
185,2527,여의도역,Yeouido,5호선,526,여의도역 5호선,서울 영등포구 여의나루로 지하 40,37.5218423045786,126.92448468769399,1,H,여의동,126.93460076393592,37.51759001910157
186,2528,여의나루역,Yeouinaru,5호선,527,여의나루역 5호선,서울 영등포구 여의동로 지하 343,37.5270851610199,126.932863954929,0,H,여의동,126.93460076393592,37.51759001910157
187,2529,마포역,Mapo,5호선,528,마포역 5호선,서울 마포구 마포대로 지하 33,37.5395837885645,126.945920370023,0,H,용강동,126.94277604266684,37.54227449400425
188,2530,공덕역,Gongdeok,5호선,529,공덕역 5호선,서울 마포구 마포대로 지하 100,37.544526787315505,126.951363830233,1,H,아현동,126.95590370163207,37.554483251679514
189,2536,을지로4가역,Euljiro 4(sa)-ga,5호선,535,을지로4가역 5호선,서울 중구 창경궁로 지하 51,37.5675250192617,126.998059555897,1,H,을지로동,126.99135225472774,37.566701478579624
190,2539,신금호역,Singeumho,5호선,538,신금호역 5호선,서울 성동구 금호로 지하 154,37.5545324884294,127.02006414624701,0,H,금호2.3가동,127.02091836139842,37.55329310772679
191,2540,행당역,Haengdang,5호선,539,행당역 5호선,서울 성동구 행당로 지하 89,37.557278436926296,127.029232035475,0,H,행당2동,127.0293401659,37.55826482191124
192,2542,마장역,Majang,5호선,541,마장역 5호선,서울 성동구 마장로 지하 296,37.5662827804848,127.043163438528,0,H,마장동,127.04532576078259,37.56637954799328
193,2543,답십리역,Dapsimni,5호선,542,답십리역 5호선,서울 성동구 천호대로 지하 300,37.5664458277827,127.05318095956001,0,H,용답동,127.05557905276898,37.56407582442792
194,2544,장한평역,Janghanpyeong,5호선,543,장한평역 5호선,서울 동대문구 천호대로 지하 405,37.5615026802954,127.064421108758,0,H,용답동,127.05557905276898,37.56407582442792
195,2545,군자역,Gunja,5호선,544,군자역 5호선,서울 광진구 천호대로 지하 550,37.5573631939521,127.079017279019,1,H,중곡1동,127.0800825285375,37.56067400014511
196,2546,아차산역,Achasan,5호선,545,아차산역 5호선,서울 광진구 천호대로 지하 657,37.5524011361136,127.08937059931002,0,H,능동,127.08053688713554,37.55377926095622
197,2547,광나루역,Gwangnaru,5호선,546,광나루역 5호선,서울 광진구 아차산로 지하 571,37.545278664159795,127.103686533578,0,H,광장동,127.10303485977407,37.54692499880753
198,2548,천호역,Cheonho,5호선,547,천호역 5호선,서울 강동구 천호대로 지하 997,37.5385789820645,127.123742434482,1,H,천호2동,127.1254393146216,37.54344348896423
199,2549,강동역,Gangdong,5호선,548,강동역 5호선,서울 강동구 천호대로 지하 1097,37.5355205088294,127.133529582127,0,H,성내2동,127.1295572269625,37.53243963816749
200,2550,길동역,Gil-dong,5호선,549,길동역 5호선,서울 강동구 양재대로 지하 1480,37.5378115570072,127.13999920443999,0,H,길동,127.14621089757424,37.539231753347785
201,2551,굽은다리역,Gubeundari,5호선,550,굽은다리역 5호선,서울 강동구 양재대로 지하 1572,37.5457314720664,127.14297084784599,0,H,명일1동,127.1460821730888,37.549806031706424
202,2552,명일역,Myeongil,5호선,551,명일역 5호선,서울 강동구 양재대로 지하 1632,37.5512602756216,127.144000929119,0,H,명일1동,127.1460821730888,37.549806031706424
203,2553,고덕역,Godeok,5호선,552,고덕역 5호선,서울 강동구 고덕로 지하 253,37.5550473189056,127.15394941502,0,H,고덕1동,127.1515020153247,37.55726306223973
204,2554,상일동역,Sangil-dong,5호선,553,상일동역 5호선,서울 강동구 고덕로 지하 359,37.5566643781876,127.165829221931,0,H,고덕2동,127.1643659743796,37.56052548107242
205,2557,방이역,Bangi,5호선,P551,방이역 5호선,서울 송파구 양재대로 지하 1127,37.5085564458698,127.125854699016,0,H,방이1동,127.12391911174258,37.51098021106454
206,2558,오금역,Ogeum,5호선,P552,오금역 5호선,서울 송파구 오금로 지하 321,37.5022659793733,127.127879247544,1,H,오금동,127.12809944967847,37.50300005998476
207,2559,개롱역,Gaerong,5호선,P553,개롱역 5호선,서울 송파구 오금로 지하 402,37.4978146566399,127.135158595127,0,H,가락2동,127.12664005653761,37.498698431647895
208,2560,거여역,Geoyeo,5호선,P554,거여역 5호선,서울 송파구 오금로 지하 499,37.4932073280335,127.144032331306,0,H,거여1동,127.14326516764659,37.49697834083816
209,2561,마천역,Macheon,5호선,P555,마천역 5호선,서울 송파구 마천로57길 지하 7,37.494670618258795,127.15232062187201,0,H,마천1동,127.14997157111824,37.49607982374298
210,2814,몽촌토성역,Mongchontoseong,8호선,813,몽촌토성역 8호선,서울 송파구 올림픽로 지하 383,37.5176236317445,127.112429917071,0,H,잠실4동,127.11223328041534,37.520239790233376
211,2815,잠실역,Jamsil,8호선,814,잠실역 8호선,서울 송파구 올림픽로 305,37.514977169316396,127.10421637902999,1,H,잠실6동,127.1006605179514,37.51812745749349
212,4127,선정릉역,Seonjeongneung,9호선,927,선정릉역 9호선,서울 강남구 선릉로 지하 580,37.5108538860091,127.043641042222,1,H,논현2동,127.03735990690524,37.51739318345911
213,4128,삼성중앙역,Samseong Jungang,9호선,928,삼성중앙역 9호선,서울 강남구 봉은사로 지하 501,37.512883034885505,127.052705651591,0,H,삼성2동,127.04607058643163,37.511266884811576
214,4129,봉은사역,Bongeunsa,9호선,929,봉은사역 9호선,서울 강남구 봉은사로 지하 601,37.5143606191744,127.060891874786,0,H,삼성1동,127.06252794171509,37.51439120945542
215,4130,종합운동장역,Sports Complex,9호선,930,종합운동장역 9호선,서울 송파구 올림픽로 지하 23,37.510969274899296,127.073356018706,1,H,잠실7동,127.07696864354489,37.508670315882846
216,4131,삼전역,Samjeon,9호선,931,삼전역 9호선,서울 송파구 백제고분로 지하 189,37.504499567472,127.08745065775601,0,H,잠실본동,127.0843446217054,37.506146070187526
217,4138,중앙보훈병원역,VHS Medical Center,9호선,938,중앙보훈병원역 9호선,서울 강동구 동남로 지하 625,37.528895724189205,127.14854196633199,0,H,둔촌2동,127.14196345403232,37.533348000803336
218,2729,건대입구역,Konkuk Univ.,7호선,727,건대입구역 7호선,서울 광진구 능동로 지하 110,37.540841605389296,127.07104643853,1,H,화양동,127.07136761473575,37.546476261142864
219,2730,뚝섬유원지역,Ttukseom Park,7호선,728,뚝섬유원지역 7호선,서울 광진구 능동로 10,37.531586260862206,127.06671773793,0,H,자양4동,127.06630523665609,37.53413911895597
220,2731,청담역,Cheongdam,7호선,729,청담역 7호선,서울 강남구 학동로 지하 508,37.5194406566749,127.053644513011,0,H,청담동,127.04931002321993,37.52511579897959
221,0423,충무로역,Chungmuro,4호선,423,충무로역 4호선,서울 중구 퇴계로 지하 199,37.5611721437347,126.99411080007299,1,H,필동,126.99559954243827,37.56016408324306
222,0424,명동역,Myeong-dong,4호선,424,명동역 4호선,서울 중구 퇴계로 지하 126,37.5609100751113,126.985947030389,0,H,명동,126.98581171546633,37.56004798513031
223,0425,회현역,Hoehyeon,4호선,425,회현역 4호선,서울 중구 퇴계로 지하 54,37.558535319643504,126.978239147279,0,H,회현동,126.97935667015034,37.55729358571407
224,0426,서울역,Seoul Station,4호선,426,서울역 4호선,서울 용산구 한강대로 지하 392,37.553200017332294,126.97280548509501,1,H,남영동,126.97336800305129,37.54284397575442
225,0427,숙대입구역,Sookmyung Women`s Univ.,4호선,427,숙대입구역 4호선,서울 용산구 한강대로 지하 306,37.5451939759064,126.971872351838,0,H,남영동,126.97336800305129,37.54284397575442
226,0428,삼각지역,Samgakji,4호선,428,삼각지역 4호선,서울 용산구 한강대로 지하 180,37.5345937063675,126.973011032988,1,H,한강로동,126.96910588830355,37.52814221077219
227,0429,신용산역,Sinyongsan,4호선,429,신용산역 4호선,서울 용산구 한강대로 지하 112,37.5296155628471,126.968215931799,0,H,한강로동,126.96910588830355,37.52814221077219
228,0431,동작역,Dongjak,4호선,431,동작역 4호선,서울 동작구 현충로 257,37.5028703671011,126.980268385443,1,H,사당2동,126.97925342785726,37.48875249863833
229,0432,총신대입구역,Chongshin Univ.,4호선,432,총신대입구역 4호선,서울 동작구 동작대로 지하 117,37.487553827819795,126.982199707405,0,H,사당2동,126.97925342785726,37.48875249863833
230,0433,사당역,Sadang,4호선,433,사당역 4호선,서울 동작구 동작대로 지하 3,37.47686326537271,126.981595139341,1,H,사당1동,126.97867156418748,37.48315533173558
231,1002,남영역,Namyeong,1호선,134,남영역 1호선,서울 용산구 한강대로77길 25,37.5405646005342,126.971332437837,0,H,남영동,126.97336800305129,37.54284397575442
232,1003,용산역,Yongsan,1호선,135,용산역 1호선,서울 용산구 한강대로23길 55,37.5297718014452,126.96474150348499,1,H,한강로동,126.96910588830355,37.52814221077219
233,1004,노량진역,Noryangjin,1호선,136,노량진역 1호선,서울 동작구 노량진로 151,37.5158026675555,126.94835918124201,1,H,노량진1동,126.9420162213609,37.51230680241965
234,1005,대방역,Daebang,1호선,137,대방역 1호선,서울 영등포구 여의대방로 300,37.5133254586186,126.92630302483299,0,H,신길7동,126.9214774694711,37.50637353304094
235,1006,영등포역,Yeongdeungpo,1호선,139,영등포역 1호선,서울 영등포구 경인로 846,37.5156680341198,126.907665995469,0,H,영등포본동,126.90935224775124,37.514672109589846
236,1007,신도림역,Sindorim,1호선,140,신도림역 1호선,서울 구로구 경인로 688,37.509035318711206,126.891187111711,1,H,신도림동,126.88061022867365,37.507780905043674
237,1008,이촌역,Ichon,경의선,K111,이촌역 경의선,서울 용산구 이촌로71길 42,37.5222293914391,126.973595696064,1,H,이촌1동,126.97331680470317,37.521396531912345
238,1009,서빙고역,Seobinggo,경의선,K112,서빙고역 경의선,서울 용산구 서빙고로 238,37.5199555398566,126.990048630943,0,H,서빙고동,126.99463808843306,37.52046238128448
239,1011,옥수역,Oksu,경의선,K114,옥수역 경의선,서울 성동구 동호로 21,37.5410468905674,127.01832999157601,1,H,옥수동,127.0134338126595,37.54358863837599
240,1013,왕십리역,Wangsimni,경의선,K116,왕십리역 경의선,서울 성동구 왕십리광장로 17,37.5614417528647,127.038394194396,1,H,행당1동,127.03620337239582,37.558504384172046
241,1014,청량리역,Cheongnyangni,경의선,K117,청량리역 경의선,서울 동대문구 왕산로 214,37.584196138116106,127.05114707633001,1,H,전농1동,127.04770565866431,37.57804108959499
242,1015,회기역,Hoegi,1호선,123,회기역 1호선,서울 동대문구 회기로 196,37.589744238767096,127.058035421223,1,H,휘경1동,127.06579124432037,37.59296725363674
243,1016,외대앞역,Hankuk Univ. of Foreign Studies,1호선,122,외대앞역 1호선,서울 동대문구 휘경로 27,37.5954136758127,127.063058800869,0,H,이문1동,127.06550563065112,37.59782195405225
244,1017,신이문역,Sinimun,1호선,121,신이문역 1호선,서울 동대문구 한천로 472,37.604278644665996,127.069577322142,0,H,이문2동,127.06511640767623,37.603379479365486
245,1019,광운대역,Kwangwoon Univ.,1호선,119,광운대역 1호선,서울 노원구 석계로 98-2,37.6230335564713,127.06176348126999,1,H,월계1동,127.06300131117236,37.61989034811612
246,1020,월계역,Wolgye,1호선,118,월계역 1호선,서울 노원구 월계로53길 40,37.6321089404669,127.05872939499099,0,H,월계2동,127.0507448981587,37.63249204970492
247,1021,녹천역,Nokcheon,1호선,117,녹천역 1호선,서울 도봉구 덕릉로 376,37.6456959058103,127.05091999212699,0,H,창1동,127.04382993743857,37.648373773131134
248,1022,창동역,Chang-dong,1호선,116,창동역 1호선,서울 도봉구 마들로11길 77,37.6532174818989,127.047714954434,1,H,창5동,127.04358074482582,37.656298909711985
249,1023,선릉역,Seolleung,분당선,K215,선릉역 분당선,서울 강남구 테헤란로 지하 340,37.5045028775835,127.048942471228,1,H,역삼2동,127.0468346777432,37.49596751103195
250,1024,한티역,Hanti,분당선,k216,한티역 분당선,서울 강남구 선릉로 지하 228,37.4962424687085,127.05288235259898,0,H,도곡2동,127.04638382177308,37.483728401661516
251,1025,도곡역,Dogok,분당선,K217,도곡역 분당선,서울 강남구 남부순환로 지하 2814,37.490864771718705,127.05532337372,1,H,도곡2동,127.04638382177308,37.483728401661516
252,1026,구룡역,Guryong,분당선,k218,구룡역 분당선,서울 강남구 개포로 지하 403,37.487087817894505,127.05926560549801,0,H,개포2동,127.06913357484176,37.48978647004139
253,1027,개포동역,Gaepo-dong,분당선,k219,개포동역 분당선,서울 강남구 개포로 지하 420,37.4892484725195,127.06647494976801,0,H,개포2동,127.06913357484176,37.48978647004139
254,1028,대모산입구역,Daemosan,분당선,k220,대모산입구역 분당선,서울 강남구 개포로 지하 522,37.4915453291369,127.07316864715,0,H,일원2동,127.07369959446872,37.49217318132317
255,102C,왕십리역,Wangsimni,분당선,K210,왕십리역 분당선,서울 성동구 왕십리광장로 17,37.5614417528647,127.038394194396,1,H,행당1동,127.03620337239582,37.558504384172046
256,1030,수서역,Suseo,분당선,K221,수서역 분당선,서울 강남구 광평로 지하 270,37.487388993350294,127.10185919101801,1,H,수서동,127.10500397212131,37.48888785942371
257,1031,복정역,Bokjeong,분당선,K222,복정역 분당선,서울 송파구 송파대로 지하 6,37.4710560005054,127.126771228018,1,H,위례동,127.14426154717584,37.481155444518166
258,1032,신길역,Singil,1호선,138,신길역 1호선,서울 영등포구 영등포로 327,37.51703185067839,126.917224932059,1,H,신길1동,126.92141821015184,37.51111638167643
259,1201,중랑역,Jungnang,경의선,K119,중랑역 경의선,서울 중랑구 중랑역로 9,37.594824096027395,127.075728956656,1,H,중화2동,127.07617317673738,37.60282866296335
260,1202,상봉역,Sangbong,경의선,K120,상봉역 경의선,서울 중랑구 망우로 297,37.596713784408706,127.08543676516399,1,H,상봉1동,127.08721335595949,37.599847752885864
261,1203,망우역,Mangu,경의선,K121,망우역 경의선,서울 중랑구 망우로55길 11-10,37.599287615390296,127.092756577852,1,H,상봉1동,127.08721335595949,37.599847752885864
262,1204,양원역,Yangwon,경의선,K122,양원역 경의선,서울 중랑구 송림길 147,37.606554361502,127.10792148904301,0,H,망우본동,127.10149623606354,37.60057154261959
263,1012,응봉역,Eungbong,경의선,K115,응봉역 경의선,서울 성동구 고산자로 123,37.550448226674796,127.034927944532,0,H,응봉동,127.03341680779683,37.553160488282536
264,1251,서울역,Seoul Station,경의선,P313,서울역 경의선,서울 중구 통일로 1,37.5560581817344,126.97211589416099,1,H,회현동,126.97935667015034,37.55729358571407
265,1252,신촌역,Sinchon,경의선,P312,신촌역 경의선,서울 서대문구 신촌역로 30,37.5598241279561,126.942386979371,0,H,신촌동,126.93927688481546,37.56515088211023
266,1261,효창공원앞역,Hyochang Park,경의선,K826,효창공원앞역 경의선,서울 용산구 백범로 지하 287,37.539334042392994,126.961318543969,1,H,효창동,126.96189891954826,37.54237952039099
267,1262,공덕역,Gongdeok,경의선,K312,공덕역 경의선,서울 마포구 마포대로 지하 92,37.542543036755795,126.95219691278999,1,H,도화동,126.94988256330043,37.541549716235735
268,1264,홍대입구역,Hongik Univ.,경의선,K314,홍대입구역 경의선,서울 마포구 양화로 지하 188,37.5574108322996,126.92696154838998,1,H,서교동,126.91459072347962,37.55510931339116
269,1267,수색역,Susaek,경의선,K317,수색역 경의선,서울 은평구 수색로 261-1,37.5808147253405,126.89565920167101,0,H,수색동,126.89367222426786,37.5835205268528
270,1305,광운대역,Kwangwoon Univ.,경춘선,P116,광운대역 경춘선,서울 노원구 석계로 98-2,37.6230335564713,127.06176348126999,1,H,월계1동,127.06300131117236,37.61989034811612
271,1306,청량리역,Cheongnyangni,경춘선,P117,청량리역 경춘선,서울 동대문구 왕산로 214,37.584196138116106,127.05114707633001,1,H,전농1동,127.04770565866431,37.57804108959499
272,1307,회기역,Hoegi,경춘선,P118,회기역 경춘선,서울 동대문구 회기로 196,37.589744238767096,127.058035421223,1,H,휘경1동,127.06579124432037,37.59296725363674
273,1309,상봉역,Sangbong,경춘선,P120,상봉역 경춘선,서울 중랑구 망우로 297,37.596713784408706,127.08543676516399,1,H,상봉1동,127.08721335595949,37.599847752885864
274,1310,망우역,Mangu,경춘선,P121,망우역 경춘선,서울 중랑구 망우로55길 11-10,37.599287615390296,127.092756577852,1,H,상봉1동,127.08721335595949,37.599847752885864
275,1311,신내역,Sinnae,경춘선,P122,신내역 경춘선,서울 중랑구 신내역로 20,37.6127905258724,127.103222049319,1,H,망우본동,127.10149623606354,37.60057154261959
276,1018,석계역,Seokgye,1호선,120,석계역 1호선,서울 노원구 화랑로 341,37.6153059403184,127.065647254398,1,H,월계1동,127.06300131117236,37.61989034811612
277,1263,서강대역,Sogang Univ.,경의선,K313,서강대역 경의선,서울 마포구 서강로 지하 118,37.5527051004675,126.934808313154,0,H,대흥동,126.94341748088685,37.54994771023627
278,1701,구로역,Guro,1호선,141,구로역 1호선,서울 구로구 구로중앙로 174,37.5024345090279,126.881491595821,0,H,구로5동,126.88935294993047,37.500123666664315
279,1702,가산디지털단지역,Gasan Digital Complex,1호선,P142,가산디지털단지역 1호선,서울 금천구 벚꽃로 309,37.481595737544296,126.882559483336,1,H,가산동,126.89163476131107,37.47687618530204
280,1703,금천구청역,Geumcheon-Gu Office,1호선,P144,금천구청역 1호선,서울 금천구 시흥대로63길 91,37.455609978438,126.894514076077,0,H,시흥1동,126.90325068575228,37.45353926774916
281,1266,디지털미디어시티역,Digital Media City,경의선,K316,디지털미디어시티역 경의선,서울 은평구 수색로 193,37.577876499679,126.900250572829,1,H,수색동,126.89367222426786,37.5835205268528
282,1714,독산역,Doksan,1호선,P143,독산역 1호선,서울 금천구 벚꽃로 115,37.4659873169402,126.889514168718,0,H,가산동,126.89163476131107,37.47687618530204
283,1801,개봉역,Gaebong,1호선,143,개봉역 1호선,서울 구로구 경인로40길 47,37.4945222528654,126.859102583368,0,H,개봉1동,126.8511464334611,37.50026550778234
284,1802,오류동역,Oryu-dong,1호선,144,오류동역 1호선,서울 구로구 경인로20길 13,37.494359185399,126.84460070167299,0,H,오류2동,126.83950458361203,37.48881469609833
285,1813,구일역,Guil,1호선,142,구일역 1호선,서울 구로구 구일로 133,37.4963911827294,126.869920428658,0,H,구로2동,126.88349941713506,37.491392694128876
286,1821,온수역,Onsu,1호선,145,온수역 1호선,서울 구로구 부일로 872,37.492473915874704,126.824038632379,1,H,수궁동,126.83147856339022,37.49390321679422
287,1847,서울숲역,Seoul-forest,분당선,K211,서울숲역 분당선,서울 성동구 왕십리로 지하 77,37.5436182408959,127.044706934942,0,H,성수1가1동,127.04965160052562,37.542079700811996
288,1848,압구정로데오역,Apgujeongrodeo,분당선,K212,압구정로데오역 분당선,서울 강남구 압구정로 지하 402,37.5272937126775,127.040512934835,0,H,청담동,127.04931002321993,37.52511579897959
289,1849,강남구청역,Gangnam-gu Office,분당선,K213,강남구청역 분당선,서울 강남구 학동로 지하 346,37.5171892352971,127.04130142966001,1,H,삼성2동,127.04607058643163,37.511266884811576
290,1850,선정릉역,Seonjeongneung,분당선,K214,선정릉역 분당선,서울 강남구 선릉로 지하 580,37.5108538860091,127.043641042222,1,H,논현2동,127.03735990690524,37.51739318345911
291,1901,방학역,Banghak,1호선,115,방학역 1호선,서울 도봉구 도봉로150다길 3,37.666346610047604,127.044423079471,0,H,방학1동,127.04067939030433,37.664235791344225
292,1902,도봉역,Dobong,1호선,114,도봉역 1호선,서울 도봉구 도봉로170길 2,37.680362906156205,127.045764016316,0,H,도봉2동,127.04654920347146,37.66971518632491
293,1903,도봉산역,Dobongsan,1호선,113,도봉산역 1호선,서울 도봉구 도봉로 948,37.688861412909006,127.04614009023199,1,H,도봉2동,127.04654920347146,37.66971518632491
294,1845,청량리역,Cheongnyangni,분당선,,청량리역 분당선,서울 동대문구 왕산로 214,37.584196138116106,127.05114707633001,1,H,전농1동,127.04770565866431,37.57804108959499
295,2537,동대문역사문화공원역,Dongdaemun History  Culture Park,5호선,536,동대문역사문화공원역 5호선,서울 중구 마른내로 지하 162,37.5645770081888,127.005916180124,1,H,광희동,127.00505266779864,37.56446721686456
296,2538,청구역,Cheonggu,5호선,5371,청구역 5호선,서울 중구 청구로 지하 77,37.5602939125022,127.013806006802,1,H,신당동,127.01450559046833,37.56211663517015
297,2712,도봉산역,Dobongsan,7호선,710,도봉산역 7호선,서울 도봉구 도봉로 964-40,37.6891205614059,127.046528790935,1,H,도봉2동,127.04654920347146,37.66971518632491
298,2713,수락산역,Suraksan,7호선,711,수락산역 7호선,서울 노원구 동일로 지하 1662,37.677625936999505,127.05537458426599,0,H,상계1동,127.0549489044653,37.67990705367882
299,2714,마들역,Madeul,7호선,712,마들역 7호선,서울 노원구 동일로 지하 1530-1,37.6650864331785,127.05768770921301,0,H,상계8동,127.05157520419306,37.666743464686554
300,2715,노원역,Nowon,7호선,713,노원역 7호선,서울 노원구 동일로 지하 1409,37.65469471611679,127.06051741025101,1,H,상계2동,127.06788803339256,37.65748032538832
301,2716,중계역,Junggye,7호선,714,중계역 7호선,서울 노원구 동일로 지하 1308-1,37.6448906789921,127.064246723057,0,H,중계2.3동,127.06873516173235,37.64211266811243
302,2717,하계역,Hagye,7호선,7151,하계역 7호선,서울 노원구 동일로 지하 1196,37.636452124064604,127.067988537404,0,H,하계2동,127.0679781735031,37.63204009452397
303,2718,공릉역,Gongneung,7호선,716,공릉역 7호선,서울 노원구 동일로 지하 1074,37.6254769202851,127.073005201049,0,H,공릉1동,127.07382131176637,37.62483590103203
304,2719,태릉입구역,Taereung,7호선,717,태릉입구역 7호선,서울 노원구 동일로 지하 992-1,37.6179056668897,127.07499539092699,1,H,공릉1동,127.07382131176637,37.62483590103203
305,2720,먹골역,Meokgol,7호선,718,먹골역 7호선,서울 중랑구 동일로 지하 901,37.610625059124395,127.077764798784,0,H,묵1동,127.07848438732296,37.612413676315946
306,4101,개화역,Gaehwa,9호선,901,개화역 9호선,서울 강서구 개화동로8길 19,37.577886100861,126.798211244431,0,H,방화2동,126.80673880485905,37.56671300076564
307,4102,김포공항역,Gimpo Intl. Airport,9호선,902,김포공항역 9호선,서울 강서구 하늘길 지하 77,37.562144131501,126.801570320177,1,H,공항동,126.79483817099285,37.55591341272746
308,4103,공항시장역,Airport Market,9호선,903,공항시장역 9호선,서울 강서구 방화동로 지하 30,37.5635555121815,126.810492268589,0,H,공항동,126.79483817099285,37.55591341272746
309,4104,신방화역,Sinbanghwa,9호선,904,신방화역 9호선,서울 강서구 방화대로 지하 301,37.5676833982563,126.81652455089899,0,H,방화1동,126.81749616956925,37.56866545658671
310,4105,마곡나루역,Magongnaru,9호선,905,마곡나루역 9호선,서울 강서구 마곡중앙5로 지하 2,37.5667930302835,126.827518199814,1,H,가양1동,126.83492534942096,37.57188423770563
311,4106,양천향교역,Yangcheon Hyanggyo,9호선,906,양천향교역 9호선,서울 강서구 양천로 지하 341,37.5687611941006,126.840817845045,0,H,가양1동,126.83492534942096,37.57188423770563
312,4108,증미역,Jeungmi,9호선,908,증미역 9호선,서울 강서구 양천로 지하 560,37.557719410141395,126.861246868802,0,H,등촌1동,126.85892191146148,37.55584159071674
313,4109,등촌역,Deungchon,9호선,909,등촌역 9호선,서울 강서구 공항대로 지하 529,37.5511171423354,126.864950041955,0,H,등촌1동,126.85892191146148,37.55584159071674
314,4112,선유도역,Seonyudo,9호선,912,선유도역 9호선,서울 영등포구 양평로 지하 124,37.538131524048794,126.89342046070699,0,H,양평2동,126.89594587647893,37.537744724515335
315,4116,샛강역,Saetgang,9호선,916,샛강역 9호선,서울 영등포구 의사당대로 지하 166,37.5166296972081,126.92907968213699,0,H,여의동,126.93460076393592,37.51759001910157
316,4117,노량진역,Noryangjin,9호선,917,노량진역 9호선,서울 동작구 노량진로 지하 130,37.5135735646312,126.940826454376,1,H,노량진1동,126.9420162213609,37.51230680241965
317,4119,흑석역,Heukseok,9호선,919,흑석역 9호선,서울 동작구 현충로 지하 90,37.5090853155754,126.96357009781799,0,H,흑석동,126.96659075316671,37.505775015361046
318,4121,구반포역,Gubanpo,9호선,921,구반포역 9호선,서울 서초구 신반포로 지하 17,37.501449823532,126.98737488294701,0,H,반포본동,126.9860356113934,37.5004413570286
319,4122,신반포역,Sinbanpo,9호선,922,신반포역 9호선,서울 서초구 신반포로 지하 105,37.503413718529,126.995898957444,0,H,반포2동,126.9945035076517,37.50459388896943
320,4125,신논현역,Sinnonhyeon,9호선,925,신논현역 9호선,서울 강남구 봉은사로 지하 102,37.5046341625192,127.025031333453,0,H,역삼1동,127.03320108651666,37.49542431718493
321,4207,김포공항역,Gimpo Intl. Airport,공항철도,A05,김포공항역 공항철도,서울 강서구 하늘길 지하 77,37.562144131501,126.801570320177,1,H,공항동,126.79483817099285,37.55591341272746
322,4110,염창역,Yeomchang,9호선,910,염창역 9호선,서울 강서구 공항대로 지하 631,37.547059307287,126.875005005839,0,H,염창동,126.87098534896086,37.553736243141515
323,4111,신목동역,Sinmokdong,9호선,911,신목동역 9호선,서울 양천구 목동중앙로 지하 217,37.544491660538505,126.88275351316601,0,H,목2동,126.8717000412482,37.54613259960127
324,4113,당산역,Dangsan,9호선,913,당산역 9호선,서울 영등포구 양평로 지하 40,37.5337405945415,126.902171452197,1,H,당산2동,126.89731736540782,37.53103166936052
325,4114,국회의사당역,National Assembly,9호선,914,국회의사당역 9호선,서울 영등포구 국회대로 지하 758,37.5280674292228,126.917885535023,0,H,여의동,126.93460076393592,37.51759001910157
326,4115,여의도역,Yeouido,9호선,915,여의도역 9호선,서울 영등포구 의사당대로 지하 101,37.521906935956395,126.923968896383,1,H,여의동,126.93460076393592,37.51759001910157
327,4118,노들역,Nodeul,9호선,918,노들역 9호선,서울 동작구 노량진로 지하 238,37.5127787896024,126.95306410612,0,H,노량진1동,126.9420162213609,37.51230680241965
328,4120,동작역,Dongjak,9호선,920,동작역 9호선,서울 동작구 현충로 지하 220,37.5030670046351,126.977937122017,1,H,사당2동,126.97925342785726,37.48875249863833
329,4123,고속터미널역,Express Bus Terminal,9호선,923,고속터미널역 9호선,서울 서초구 신반포로 지하 188,37.504647182738,127.004442096367,1,H,반포4동,127.00030759341732,37.49747606930116
330,4124,사평역,Sapyeong,9호선,924,사평역 9호선,서울 서초구 사평대로 지하 285,37.50415890412229,127.01543419664101,0,H,반포1동,127.01337714858089,37.50509061438031
331,4206,마곡나루역,Magongnaru,공항철도,A042,마곡나루역 공항철도,서울 강서구 마곡중앙로 지하 135,37.565821296795,126.82763442159201,1,H,가양1동,126.83492534942096,37.57188423770563
332,4107,가양역,Gayang,9호선,907,가양역 9호선,서울 강서구 양천로 지하 485,37.561554260243504,126.85438825433799,0,H,가양2동,126.85126200422994,37.567379353467736
333,4201,서울역,Seoul Station,공항철도,A01,서울역 공항철도,서울 용산구 청파로 378,37.549118478341,126.97048428131501,1,H,청파동,126.969863704612,37.54543080354661
334,4202,공덕역,Gongdeok,공항철도,A02,공덕역 공항철도,서울 마포구 마포대로 지하 92,37.542543036755795,126.95219691278999,1,H,도화동,126.94988256330043,37.541549716235735
335,4203,홍대입구역,Hongik Univ.,공항철도,A03,홍대입구역 공항철도,서울 마포구 양화로 지하 188,37.5574108322996,126.92696154838998,1,H,서교동,126.91459072347962,37.55510931339116
336,4204,디지털미디어시티역,Digital Media City,공항철도,A04,디지털미디어시티역 공항철도,서울 마포구 성암로 지하 184,37.5768239035855,126.899020186183,1,H,상암동,126.89468943321278,37.57832090509381
337,4309,양재시민의숲역,Yangjae Citizen's Forest,신분당선,D9,양재시민의숲역 신분당선,서울 서초구 매헌로 지하 116,37.4699787301083,127.038325774107,0,H,양재2동,127.0412886879359,37.470633217194234
338,4307,강남역,Gangnam,신분당선,D7,강남역 신분당선,서울 강남구 강남대로 지하 396,37.4981646510326,127.028307900881,1,H,역삼1동,127.03320108651666,37.49542431718493
339,4308,양재역,Yangjae,신분당선,D8,양재역 신분당선,서울 서초구 남부순환로 지하 2585,37.483934732890795,127.03454419343599,1,H,양재1동,127.02672880394384,37.47163933132787
340,4701,북한산우이역,Bukhansan Ui,우이신설경전철,941,북한산우이역 우이신설경전철,서울 강북구 삼양로 지하 676,37.662966152554205,127.012702176264,0,H,우이동,127.00189499221491,37.663269731120074
341,0323,약수역,Yaksu,3호선,333,약수역 3호선,서울 중구 다산로 지하 122,37.5545595558163,127.010822526737,1,H,약수동,127.00900370980592,37.55243326328505
342,4702,솔밭공원역,Solbat Park,우이신설경전철,942,솔밭공원역 우이신설경전철,서울 강북구 삼양로 595,37.6561546882896,127.013091650663,0,H,우이동,127.00189499221491,37.663269731120074
343,4703,4.19민주묘지역,April 19th National Cemetery,우이신설경전철,943,4.19민주묘지역 우이신설경전철,서울 강북구 삼양로 519,37.6494786329719,127.013478245674,0,H,우이동,127.00189499221491,37.663269731120074
344,4704,가오리역,Gaori,우이신설경전철,944,가오리역 우이신설경전철,서울 강북구 삼양로 426,37.641713417798,127.01694043556499,0,H,수유2동,127.01993324444145,37.64466097042541
345,4707,삼양사거리역,Samyang Sageori,우이신설경전철,947,삼양사거리역 우이신설경전철,서울 강북구 삼양로 197,37.6214280999689,127.020237295242,0,H,삼양동,127.01838797999687,37.62734428383054
346,4708,솔샘역,Solsaem,우이신설경전철,948,솔샘역 우이신설경전철,서울 강북구 솔샘로 지하 189,37.6202522935181,127.013408969328,0,H,삼양동,127.01838797999687,37.62734428383054
347,4709,북한산보국문역,Bukhansan Bogungmun,우이신설경전철,949,북한산보국문역 우이신설경전철,서울 성북구 보국문로 지하 88,37.6121461272569,127.008208009279,0,H,정릉4동,127.00699953542005,37.6133765955324
348,4710,정릉역,Jeongneung,우이신설경전철,950,정릉역 우이신설경전철,서울 성북구 아리랑로 지하 122,37.6026876819314,127.013496185509,0,H,정릉1동,127.01665578077184,37.601446524312756
349,4711,성신여대입구역,Sungshin Women`s Univ.,우이신설경전철,951,성신여대입구역 우이신설경전철,서울 성북구 동소문로 지하 102,37.592717926134604,127.01647764974301,1,H,동선동,127.02042247154486,37.59399653771089
350,4712,보문역,Bomun,우이신설경전철,952,보문역 우이신설경전철,서울 성북구 보문로 지하 116,37.585327723884795,127.01938698351499,1,H,보문동,127.02280976990156,37.580380297758296
351,0200,까치산역,Kkachisan,2호선,234-4,까치산역 2호선,서울 강서구 강서로 지하 54,37.531956084774606,126.846611592059,1,H,화곡8동,126.84836227238645,37.532633194908016
352,0201,시청역,City Hall,2호선,201,시청역 2호선,서울 중구 서소문로 지하 127,37.5635793508101,126.975389363157,1,H,소공동,126.97978948415194,37.56389256147569
353,0430,이촌역,Ichon,4호선,430,이촌역 4호선,서울 용산구 서빙고로 지하 83,37.522520254623,126.973683151228,1,H,한강로동,126.96910588830355,37.52814221077219
354,2816,석촌역,Seokchon,8호선,815,석촌역 8호선,서울 송파구 송파대로 지하 439,37.505949643118704,127.10634534942801,1,H,석촌동,127.10366738403702,37.50356463067748
355,2817,송파역,Songpa,8호선,816,송파역 8호선,서울 송파구 송파대로 지하 354,37.4996866748478,127.112179893361,0,H,가락1동,127.10729000914175,37.4997483408833
356,2818,가락시장역,Garak Market,8호선,817,가락시장역 8호선,서울 송파구 송파대로 지하 257,37.4927440321316,127.118485741487,1,H,가락1동,127.10729000914175,37.4997483408833
357,2819,문정역,Munjeong,8호선,818,문정역 8호선,서울 송파구 송파대로 지하 179,37.486261823338296,127.122290332976,0,H,문정2동,127.11091238533636,37.4898951926552
358,2820,장지역,Jangji,8호선,819,장지역 8호선,서울 송파구 송파대로 지하 82,37.478119205061205,127.12642420403601,0,H,문정2동,127.11091238533636,37.4898951926552
359,2821,복정역,Bokjeong,8호선,820,복정역 8호선,서울 송파구 송파대로 지하 6,37.4710560005054,127.126771228018,1,H,위례동,127.14426154717584,37.481155444518166
360,0153,종로3가역,Jongno 3(sam)-ga,1호선,130,종로3가역 1호선,서울 종로구 종로 지하 129,37.5704266025836,126.99202930223,1,H,종로1.2.3.4가동,126.99028726084354,37.574435539666744
361,0154,종로5가역,Jongno 5(o)-ga,1호선,129,종로5가역 1호선,서울 종로구 종로 지하 216,37.570907537101604,127.001916647342,0,H,종로5.6가동,127.00507129056305,37.572031975843586
362,0155,동대문역,Dongdaemun,1호선,128,동대문역 1호선,서울 종로구 종로 지하 302,37.5717775660734,127.011167102297,1,H,창신2동,127.01087193533141,37.574482290328575
363,0156,신설동역,Sinseol-dong,1호선,126,신설동역 1호선,서울 동대문구 왕산로 지하 1,37.5753194830738,127.024701893044,1,H,용신동,127.03726228192635,37.57580677816467
364,0157,제기동역,Jegi-dong,1호선,125,제기동역 1호선,서울 동대문구 왕산로 지하 93,37.578201413657204,127.03469060192499,0,H,제기동,127.03781841472248,37.583115463995185
365,0158,청량리역,Cheongnyangni,1호선,124,청량리역 1호선,서울 동대문구 왕산로 지하 205,37.5802272229757,127.045051240227,1,H,청량리동,127.04728971940368,37.586251109549686
366,0159,동묘앞역,Dongmyo,1호선,127,동묘앞역 1호선,서울 종로구 종로 359,37.573372207569705,127.01675118037,1,H,숭인1동,127.01564523867643,37.577829849675894
367,0321,충무로역,Chungmuro,3호선,331,충무로역 3호선,서울 중구 퇴계로 지하 199,37.5611721437347,126.99411080007299,1,H,필동,126.99559954243827,37.56016408324306
368,4310,청계산입구역,Cheonggyesan,신분당선,D10,청계산입구역 신분당선,서울 서초구 청계산로 지하 179,37.4483676641102,127.05463196133499,0,H,내곡동,127.0769169347293,37.45824631311163
369,4713,신설동역,Sinseol-dong,우이신설경전철,953,신설동역 우이신설경전철,서울 동대문구 왕산로 지하 1,37.5753194830738,127.024701893044,1,H,용신동,127.03726228192635,37.57580677816467
370,4929,김포공항역,Gimpo Int’l Airport,김포도시철도,699,김포공항역 김포도시철도,서울 강서구 하늘길 지하 77,37.562144131501,126.801570320177,1,H,공항동,126.79483817099285,37.55591341272746
371,0224,서초역,Seocho,2호선,224,서초역 2호선,서울 서초구 서초대로 지하 233,37.491822999009294,127.007580814715,0,H,서초3동,127.01200750943013,37.48370806396488
372,0208,왕십리역,Wangsimni,2호선,208,왕십리역 2호선,서울 성동구 왕십리로 지하 300,37.561221741519105,127.036655378283,1,H,행당1동,127.03620337239582,37.558504384172046
373,2649,신내역,Sinnae,6호선,648,신내역 6호선,서울 중랑구 용마산로136길 33,37.6100975955422,127.11025628598699,1,H,망우본동,127.10149623606354,37.60057154261959
374,0207,상왕십리역,Sangwangsimni,2호선,207,상왕십리역 2호선,서울 성동구 왕십리로 지하 374,37.5644687111181,127.029031221392,0,H,왕십리2동,127.03050479092835,37.561108073176435
375,1010,한남역,Hannam,경의선,K113,한남역 경의선,서울 용산구 독서당로6길 12-13,37.5291881521046,127.00824982057199,0,H,한남동,127.00055213243787,37.53462985578658
376,0233,대림역,Daerim,2호선,233,대림역 2호선,서울 구로구 도림천로 351,37.4933105886136,126.8949461878,1,H,구로4동,126.88916194362048,37.49162880006584
377,0246,신설동역,Sinseol-dong,2호선,211-4,신설동역 2호선,서울 동대문구 왕산로 지하 1,37.5753194830738,127.024701893044,1,H,용신동,127.03726228192635,37.57580677816467
378,0247,도림천역,Dorimcheon,2호선,234-1,도림천역 2호선,서울 구로구 경인로67길 160,37.5144420510515,126.882702584468,0,H,신도림동,126.88061022867365,37.507780905043674
379,0248,양천구청역,Yangcheon-gu Office,2호선,234-2,양천구청역 2호선,서울 양천구 목동로3길 지하 33,37.512698935844604,126.866065211751,0,H,신정7동,126.85968767342912,37.51440010484428
380,0250,용두역,Yongdu,2호선,211-3,용두역 2호선,서울 동대문구 천호대로 지하 129,37.5739380503267,127.038031119837,0,H,용신동,127.03726228192635,37.57580677816467
381,1308,중랑역,Jungnang,경춘선,P119,중랑역 경춘선,서울 중랑구 중랑역로 9,37.594824096027395,127.075728956656,1,H,중화2동,127.07617317673738,37.60282866296335
382,100C,용산역,Yongsan,경의선,K110,용산역 경의선,서울 용산구 한강대로23길 55,37.5297718014452,126.96474150348499,1,H,한강로동,126.96910588830355,37.52814221077219
383,4126,언주역,Eonju,9호선,926,언주역 9호선,서울 강남구 봉은사로 지하 201,37.5074454982119,127.034284713238,0,H,논현2동,127.03735990690524,37.51739318345911
384,0150,서울역,Seoul Station,1호선,133,서울역 1호선,서울 중구 세종대로 지하 2,37.557159483598795,126.972554606456,1,H,회현동,126.97935667015034,37.55729358571407
385,0151,시청역,City Hall,1호선,132,시청역 1호선,서울 중구 세종대로 지하 101,37.56543851764079,126.976983237511,1,H,소공동,126.97978948415194,37.56389256147569
386,0152,종각역,Jonggak,1호선,131,종각역 1호선,서울 종로구 종로 지하 55,37.5702140381269,126.98323967893299,0,H,종로1.2.3.4가동,126.99028726084354,37.574435539666744
387,4705,화계역,Hwagye,우이신설경전철,945,화계역 우이신설경전철,서울 강북구 삼양로 341,37.633930477075296,127.0172978051,0,H,수유1동,127.01760923818316,37.63005817372584
388,4706,삼양역,Samyang,우이신설경전철,946,삼양역 우이신설경전철,서울 강북구 삼양로 지하 259,37.626835165677,127.018198221331,0,H,삼양동,127.01838797999687,37.62734428383054
389,101C,회기역,Hoegi,경의선,K118,회기역 경의선,서울 동대문구 회기로 196,37.589744238767096,127.058035421223,1,H,휘경1동,127.06579124432037,37.59296725363674
390,1265,가좌역,Gajwa,경의선,K315,가좌역 경의선,서울 서대문구 수색로 27,37.5688870324193,126.915149791265,0,H,남가좌1동,126.91978625354398,37.57327343428088
